Club Name,Pitch Name,Latitude,Longitude,Province,Country,Division,County,Directions,Twitter,Elevation,Annual Rainfall,Rain Days,Uses VEO,VEO Recordings,VEO Club Identifier
Abbeydorney,,52.34873500,-9.69104600,Munster,Ireland,Kerry,Kerry,"https://maps.google.com/?daddr=52.348735,-9.691046",https://twitter.com/odorneygaa,9.00,1410.30,281.00,false,0,
Abbeyknockmoy Hurling,,53.43808000,-8.72746300,Connacht,Ireland,Galway,Galway,"https://maps.google.com/?daddr=53.43808,-8.727463",https://twitter.com/Abbey_Hurling,56.00,1153.60,274.00,false,0,
Abbeylara,Oliver Lynch Park,53.75859400,-7.45802300,Leinster,Ireland,Longford,Longford,"https://maps.google.com/?daddr=53.758594,-7.458023",,88.00,957.20,273.00,false,0,
Abbey Sarsfields,Bishop's Fields,52.68322700,-8.61613300,Munster,Ireland,Limerick,Limerick,"https://maps.google.com/?daddr=52.683227,-8.616133",https://twitter.com/abbeysarsfields,17.00,1166.50,263.00,false,0,
Abbeyside / Ballinacourty,,52.10352900,-7.59893800,Munster,Ireland,Waterford,Waterford,"https://maps.google.com/?daddr=52.103529,-7.598938",https://twitter.com/abbeycourtygaa,8.00,1395.90,257.00,false,0,
Achill GAA,Davitt Park,53.93313000,-9.91650000,Connacht,Ireland,Mayo,Mayo,"https://maps.google.com/?daddr=53.93313,-9.9165",https://twitter.com/clgacla,6.00,1853.40,311.00,false,0,
Adare,,52.56410400,-8.80703700,Munster,Ireland,Limerick,Limerick,"https://maps.google.com/?daddr=52.564104,-8.807037",https://twitter.com/adaregaa,12.00,1030.80,252.00,false,0,
Adrigole,,51.68447500,-9.71232300,Munster,Ireland,Cork,Cork,"https://maps.google.com/?daddr=51.684475,-9.712323",https://twitter.com/adrigolegaa,23.00,1811.60,280.00,false,0,
Aghabog Emmets ,Páirc Emmet,54.17118000,-7.04587000,Ulster,Ireland,Monaghan,Monaghan,"https://maps.google.com/?daddr=54.17118,-7.04587",https://twitter.com/aghaboggfc,148.00,932.80,256.00,false,0,
Aghabullogue,Coachford,51.90673600,-8.78697500,Munster,Ireland,Cork,Cork,"https://maps.google.com/?daddr=51.906736,-8.786975",https://twitter.com/aghabulloguegaa,60.00,1278.10,246.00,false,0,
Aghada,Páirc Liam Ui Riain,51.84775400,-8.19324400,Munster,Ireland,Cork,Cork,"https://maps.google.com/?daddr=51.847754,-8.193244",https://twitter.com/aghadagaa,6.00,1248.30,249.00,false,0,
Aghaderg-Ballyvarley GAA,Pearse Park,54.34497000,-6.32695600,Ulster,United Kingdom,Down,Down,"https://maps.google.com/?daddr=54.34497,-6.326956",https://twitter.com/aghaderg_bv,90.00,931.55,282.00,false,0,
Aghamore GAA,Aghamore Pitch,53.82710000,-8.81987200,Connacht,Ireland,Mayo,Mayo,"https://maps.google.com/?daddr=53.8271,-8.819872",https://twitter.com/AghamoreGAA,144.00,1223.80,277.00,false,0,
Aghinagh,,51.93863500,-8.90606000,Munster,Ireland,Cork,Cork,"https://maps.google.com/?daddr=51.938635,-8.90606",https://twitter.com/aghinaghgaa,175.00,1397.80,245.00,false,0,
Ahane,Mackey Park,52.69145700,-8.51619600,Munster,Ireland,Limerick,Limerick,"https://maps.google.com/?daddr=52.691457,-8.516196",https://twitter.com/ahanegaaclub,29.00,1166.50,263.00,false,0,
Ahascragh/Fohenagh,Ahascragh,53.39961300,-8.32490400,Connacht,Ireland,Galway,Galway,"https://maps.google.com/?daddr=53.399613,-8.324904",https://twitter.com/AhasFohGAA,71.00,1051.10,268.00,false,0,
Aherlow,Lisvernane,52.41105100,-8.22570100,Munster,Ireland,Tipperary,Tipperary,"https://maps.google.com/?daddr=52.411051,-8.225701",https://twitter.com/aherlowgaa,102.00,1066.60,249.00,false,0,
"Allen Gaels GAA, Drumshanbo",Shane McGettigan Park,54.04481100,-8.03151900,Connacht,Ireland,Leitrim,Leitrim,"https://maps.google.com/?daddr=54.044811,-8.031519",https://twitter.com/allengaels,84.00,1233.60,277.00,false,0,
Allenwood,,53.29000200,-6.87351100,Leinster,Ireland,Kildare,Kildare,"https://maps.google.com/?daddr=53.290002,-6.873511",https://twitter.com/allenwood_gfc,84.00,866.90,251.00,false,0,
"All Saints GAA, Ballymena",Slemish Park,54.86743000,-6.22718900,Ulster,United Kingdom,Antrim,Antrim,"https://maps.google.com/?daddr=54.86743,-6.227189",https://twitter.com/allsaintsgac,73.00,1036.64,295.00,false,0,
An Ghaeltacht ,Gallarus,52.18150900,-10.36459300,Munster,Ireland,Kerry,Kerry,"https://maps.google.com/?daddr=52.181509,-10.364593",https://twitter.com/anghaeltacht,,1800.90,295.00,false,0,
Annaclone GAA,Gaelic Park,54.29496500,-6.17984700,Ulster,United Kingdom,Down,Down,"https://maps.google.com/?daddr=54.294965,-6.179847",https://twitter.com/annaclonegac,100.00,1020.80,276.00,false,0,
Annacurra GAA,,52.84160700,-6.35394800,Leinster,Ireland,Wicklow,Wicklow,"https://maps.google.com/?daddr=52.841607,-6.353948",https://twitter.com/annacurragaa,79.00,1095.50,246.00,false,0,
Annaduff GAA,Stanley Cox Park,53.89416200,-7.95129900,Connacht,Ireland,Leitrim,Leitrim,"https://maps.google.com/?daddr=53.894162,-7.951299",https://twitter.com/annaduffgaa,74.00,1025.80,266.00,false,0,
Annaghminnon Rovers GAA,Páirc Annaghminnon,53.96569000,-6.60197900,Leinster,Ireland,Louth,Louth,"https://maps.google.com/?daddr=53.96569,-6.601979",,42.00,838.20,243.00,false,0,
Annanough,Páirc Ánach na nEach,53.05173500,-7.09118100,Leinster,Ireland,Laois,Laois,"https://maps.google.com/?daddr=53.051735,-7.091181",https://twitter.com/annanoughgaa,65.00,831.70,246.00,false,0,
Annascaul,,52.15306600,-10.04768500,Munster,Ireland,Kerry,Kerry,"https://maps.google.com/?daddr=52.153066,-10.047685",https://twitter.com/annascaulgaa,50.00,1813.90,285.00,false,0,
"An Ríocht GAA, Greencastle","Páirc na Rochta, Dunavil",54.04927900,-6.03574100,Ulster,United Kingdom,Down,Down,"https://maps.google.com/?daddr=54.049279,-6.035741",,27.00,955.92,277.00,false,0,
An Tochar GAA,,53.05926300,-6.22998300,Leinster,Ireland,Wicklow,Wicklow,"https://maps.google.com/?daddr=53.059263,-6.229983",https://twitter.com/antochargaa,236.00,1110.70,246.00,false,0,
Antrim GAA,Casement Park,54.57330600,-5.98398600,Ulster,United Kingdom,Antrim,Antrim,"https://maps.google.com/?daddr=54.573306,-5.983986",,22.00,981.90,260.00,false,0,
Aodh Ruadh GAA,Father Tierney Park,54.49814400,-8.19186900,Ulster,Ireland,Donegal,Donegal,"https://maps.google.com/?daddr=54.498144,-8.191869",https://twitter.com/aodhruadh,21.00,1394.60,285.00,false,0,
Araglen,,52.20665300,-8.08551100,Munster,Ireland,Cork,Cork,"https://maps.google.com/?daddr=52.206653,-8.085511",https://twitter.com/araglengaa,106.00,1263.40,259.00,false,0,
Ardagh GAA,Ardagh,54.12397000,-9.25255500,Connacht,Ireland,Mayo,Mayo,"https://maps.google.com/?daddr=54.12397,-9.252555",https://twitter.com/ardagh_gaa,21.00,1225.10,286.00,false,0,
Ardagh Moydow,Keenan Park,53.66964900,-7.70596300,Leinster,Ireland,Longford,Longford,"https://maps.google.com/?daddr=53.669649,-7.705963",https://twitter.com/ardaghgfc,103.00,969.80,271.00,false,0,
Ardagh Moydow,Moydow,53.66669500,-7.77991100,Leinster,Ireland,Longford,Longford,"https://maps.google.com/?daddr=53.666695,-7.779911",https://twitter.com/moydowgaa,83.00,969.80,271.00,false,0,
Ardara GAA,Pearse Park,54.76972200,-8.41648700,Ulster,Ireland,Donegal,Donegal,"https://maps.google.com/?daddr=54.769722,-8.416487",https://twitter.com/ardaragaa,6.00,1596.27,309.00,false,0,
Ardclough,,53.29748700,-6.56542000,Leinster,Ireland,Kildare,Kildare,"https://maps.google.com/?daddr=53.297487,-6.56542",,70.00,833.80,251.00,false,0,
Ardfert,,52.33123400,-9.77816700,Munster,Ireland,Kerry,Kerry,"https://maps.google.com/?daddr=52.331234,-9.778167",https://twitter.com/ardfertgaakerry,10.00,1396.40,280.00,false,0,
Ardfinnan,,52.31838200,-7.86447800,Munster,Ireland,Tipperary,Tipperary,"https://maps.google.com/?daddr=52.318382,-7.864478",https://twitter.com/ardfinnangaa,60.00,1039.40,248.00,false,0,
Ardglass GAA,Ardtole Park,54.26802500,-5.59380000,Ulster,United Kingdom,Down,Down,"https://maps.google.com/?daddr=54.268025,-5.5938",https://twitter.com/ardglassgac,17.00,840.10,242.00,false,0,
Ardmore,,51.95835500,-7.72769700,Munster,Ireland,Waterford,Waterford,"https://maps.google.com/?daddr=51.958355,-7.727697",https://twitter.com/ardmoregaa,16.00,1233.00,248.00,false,0,
Ardnaree Sarsfields,Sean Duffy Park,54.11177600,-9.14224400,Connacht,Ireland,Mayo,Mayo,"https://maps.google.com/?daddr=54.111776,-9.142244",https://twitter.com/ardnareesarsgaa,20.00,1268.40,293.00,false,0,
Ardrahan,,53.15673000,-8.80274000,Connacht,Ireland,Galway,Galway,"https://maps.google.com/?daddr=53.15673,-8.80274",,35.00,1158.00,275.00,false,0,
Argideen Rangers,Timoleague,51.63865300,-8.77648900,Munster,Ireland,Cork,Cork,"https://maps.google.com/?daddr=51.638653,-8.776489",https://twitter.com/argideenrangers,23.00,1449.20,256.00,false,0,
Arklow Geraldines Ballymoney GAA,Pearse's Park,52.80119600,-6.16957800,Leinster,Ireland,Wicklow,Wicklow,"https://maps.google.com/?daddr=52.801196,-6.169578",https://twitter.com/agbarklow,7.00,1095.50,246.00,false,0,
Arklow Geraldines Ballymoney GAA,Ballymoney Pitch,52.82096210,-6.17813710,Leinster,Ireland,Wicklow,Wicklow,"https://maps.google.com/?daddr=52.8209621,-6.1781371",https://twitter.com/agbarklow,59.00,1095.50,246.00,false,0,
Arklow Rock Parnells GAA,,52.79012400,-6.17628000,Leinster,Ireland,Wicklow,Wicklow,"https://maps.google.com/?daddr=52.790124,-6.17628",,39.00,1052.90,238.00,false,0,
Arles-Kilcruise,,52.89488300,-7.02589900,Leinster,Ireland,Laois,Laois,"https://maps.google.com/?daddr=52.894883,-7.025899",,123.00,934.80,261.00,false,0,
Arles-Killeen,Rossena,52.89283300,-6.99585000,Leinster,Ireland,Laois,Laois,"https://maps.google.com/?daddr=52.892833,-6.99585",https://twitter.com/arleskilleengfc,65.00,897.60,252.00,false,0,
Armagh GAA,Athletic Grounds,54.34354100,-6.66238500,Ulster,United Kingdom,Armagh,Armagh,"https://maps.google.com/?daddr=54.343541,-6.662385",,42.00,872.70,254.00,false,0,
Armagh Harps,Abbey Park,54.35883200,-6.66149100,Ulster,United Kingdom,Armagh,Armagh,"https://maps.google.com/?daddr=54.358832,-6.661491",https://twitter.com/ArmaghHarpsGFC,54.00,871.79,277.00,false,0,
Arranmore GAA,Gairmscoil McDiarmada,54.98566000,-8.49248800,Ulster,Ireland,Donegal,Donegal,"https://maps.google.com/?daddr=54.98566, -8.492488",https://twitter.com/ArranmoreGAA,,1828.71,308.00,false,0,
Arravale Rovers,Sean Treacy Park,52.46900700,-8.15853500,Munster,Ireland,Tipperary,Tipperary,"https://maps.google.com/?daddr=52.469007,-8.158535",https://twitter.com/arravalerovers,97.00,1076.70,249.00,false,0,
"Art McMurrough's GAA, Belnaleck",Belnaleck GAA Grounds,54.29011100,-7.67272700,Ulster,United Kingdom,Fermanagh,Fermanagh,"https://maps.google.com/?daddr=54.290111,-7.672727",https://twitter.com/belnaleckgac,51.00,1098.11,296.00,false,0,
Asca,Presentation College,52.83871500,-6.90745800,Leinster,Ireland,Carlow,Carlow,"https://maps.google.com/?daddr=52.838715,-6.907458",https://twitter.com/ascajuve,57.00,877.20,242.00,false,0,
Asdee,,52.54083800,-9.55145000,Munster,Ireland,Kerry,Kerry,"https://maps.google.com/?daddr=52.540838,-9.55145",https://twitter.com/asdee_gaa,69.00,1269.20,277.00,false,0,
Ashford GAA,,53.01232800,-6.10953400,Leinster,Ireland,Wicklow,Wicklow,"https://maps.google.com/?daddr=53.012328,-6.109534",https://twitter.com/ashfordgaa1884,24.00,1110.70,246.00,false,0,
Askamore-Kilrush,,52.64304300,-6.55579300,Leinster,Ireland,Wexford,Wexford,"https://maps.google.com/?daddr=52.643043,-6.555793",https://twitter.com/kilaskgaa,89.00,1065.10,252.00,false,0,
Askeaton,,52.59932500,-8.96763100,Munster,Ireland,Limerick,Limerick,"https://maps.google.com/?daddr=52.599325,-8.967631",,15.00,1067.00,254.00,false,0,
Athea,Páirc na nGael,52.46308800,-9.27276100,Munster,Ireland,Limerick,Limerick,"https://maps.google.com/?daddr=52.463088,-9.272761",https://twitter.com/atheagaa,114.00,1208.20,271.00,false,0,
Athgarvan,,53.14889900,-6.80098900,Leinster,Ireland,Kildare,Kildare,"https://maps.google.com/?daddr=53.148899,-6.800989",https://twitter.com/athgarvan_gaa,111.00,862.00,263.00,false,0,
Athleague GAA,Athleague GAA Pitch,53.57451500,-8.26749000,Connacht,Ireland,Roscommon,Roscommon,"https://maps.google.com/?daddr=53.574515,-8.26749",https://twitter.com/athleaguegaa,53.00,1032.60,263.00,false,0,
Athlone,Páirc Chiarán,53.42845800,-7.92683800,Leinster,Ireland,Westmeath,Westmeath,"https://maps.google.com/?daddr=53.428458,-7.926838",https://twitter.com/athlonegaa,43.00,961.10,262.00,false,0,
Athy,,52.99299300,-6.96973500,Leinster,Ireland,Kildare,Kildare,"https://maps.google.com/?daddr=52.992993,-6.969735",https://twitter.com/athygfc,65.00,904.20,245.00,false,0,
Atticall GAA,Holy Cross Park,54.10535000,-6.06206300,Ulster,United Kingdom,Down,Down,"https://maps.google.com/?daddr=54.10535,-6.062063",https://twitter.com/atticallgac,112.00,1184.14,283.00,false,0,
Aughavas GAA,Páirc Achadh an Mheasa,53.95939700,-7.72381600,Connacht,Ireland,Leitrim,Leitrim,"https://maps.google.com/?daddr=53.959397,-7.723816",https://twitter.com/gaaaughavas,66.00,1051.30,268.00,false,0,
Aughawillan GAA,,54.09145500,-7.75850200,Connacht,Ireland,Leitrim,Leitrim,"https://maps.google.com/?daddr=54.091455,-7.758502",https://twitter.com/AughawillanGAA,60.00,1155.90,264.00,false,0,
Aughlisnafin GAA,Annsborough,54.26224600,-5.91886000,Ulster,United Kingdom,Down,Down,"https://maps.google.com/?daddr=54.262246,-5.91886",https://twitter.com/AughlisnafinGAC,28.00,1235.59,278.00,false,0,
Aughnamullen Sarsfields,Páirc Sháirséil,54.06228000,-6.81379000,Ulster,Ireland,Monaghan,Monaghan,"https://maps.google.com/?daddr=54.06228,-6.81379",https://twitter.com/aughnamullengaa,164.00,949.10,258.00,false,0,
Aughnasheelin GAA,,54.06478700,-7.86461800,Connacht,Ireland,Leitrim,Leitrim,"https://maps.google.com/?daddr=54.064787,-7.864618",https://twitter.com/aughnasheelingc,78.00,1354.60,286.00,false,0,
Aughrim GAA,,52.85255400,-6.33516400,Leinster,Ireland,Wicklow,Wicklow,"https://maps.google.com/?daddr=52.852554,-6.335164",,71.00,1095.50,246.00,false,0,
Austin Stacks,Connolly Park,52.27660400,-9.71299700,Munster,Ireland,Kerry,Kerry,"https://maps.google.com/?daddr=52.276604,-9.712997",https://twitter.com/austinstacksgaa,7.00,1354.50,277.00,false,0,
Avoca GAA,,52.85374300,-6.21591900,Leinster,Ireland,Wicklow,Wicklow,"https://maps.google.com/?daddr=52.853743,-6.215919",https://twitter.com/GaaAvoca,24.00,1095.50,246.00,false,0,
Avondale GAA,,52.92306700,-6.24191500,Leinster,Ireland,Wicklow,Wicklow,"https://maps.google.com/?daddr=52.923067,-6.241915",https://twitter.com/avondale_gaa,150.00,1164.50,252.00,false,0,
Bailieborough Shamrocks,St. Ann's Park,53.92576500,-6.96982700,Ulster,Ireland,Cavan,Cavan,"https://maps.google.com/?daddr=53.925765,-6.969827",https://twitter.com/BailieboroS,135.00,988.71,286.00,false,0,
Balla GAA,P W Nally Park,53.80312000,-9.14206000,Connacht,Ireland,Mayo,Mayo,"https://maps.google.com/?daddr=53.80312,-9.14206",https://twitter.com/ballagaaclub,49.00,1225.90,275.00,false,0,
Ballaghaderreen GAA,Ballaghaderreen GAA Park,53.89892680,-8.59583590,Connacht,Ireland,Mayo,Mayo,"https://maps.google.com/?daddr=53.8989268,-8.5958359",https://twitter.com/ballagh_gaa,86.00,1128.80,273.00,false,0,
Ballela GAA,Hillen's Meadow,54.35467900,-6.14846900,Ulster,United Kingdom,Down,Down,"https://maps.google.com/?daddr=54.354679,-6.148469",https://twitter.com/ballelagac,140.00,953.61,276.00,false,0,
Ballina,Ballina,52.81531400,-8.44001900,Munster,Ireland,Tipperary,Tipperary,"https://maps.google.com/?daddr=52.815314,-8.440019",https://twitter.com/ballinagaa,63.00,1106.40,263.00,false,0,
Ballinabrackey GAA,,53.39638700,-7.10849400,Leinster,Ireland,Meath,Meath,"https://maps.google.com/?daddr=53.396387,-7.108494",https://twitter.com/ballinabrackey1,72.00,851.40,255.00,false,0,
Ballinabranna,Páirc Liam Dobbs,52.78621100,-6.98510600,Leinster,Ireland,Carlow,Carlow,"https://maps.google.com/?daddr=52.786211,-6.985106",https://twitter.com/ballinabrannagc,91.00,878.00,245.00,false,0,
Ballinacor GAA,,52.94656200,-6.33326000,Leinster,Ireland,Wicklow,Wicklow,"https://maps.google.com/?daddr=52.946562,-6.33326",,134.00,1016.20,239.00,false,0,
Ballinacurra,,51.89704800,-8.15047700,Munster,Ireland,Cork,Cork,"https://maps.google.com/?daddr=51.897048,-8.150477",https://twitter.com/ballinacurragaa,18.00,1312.00,245.00,false,0,
Ballinacurra Gaels,,52.64409600,-8.63650700,Munster,Ireland,Limerick,Limerick,"https://maps.google.com/?daddr=52.644096,-8.636507",https://twitter.com/ballinacurrag,7.00,1099.30,259.00,false,0,
Ballinagh GAA,Ballinagh GAA Grounds,53.93067300,-7.41200800,Ulster,Ireland,Cavan,Cavan,"https://maps.google.com/?daddr=53.930673,-7.412008",https://twitter.com/Ballinagh,68.00,997.43,293.00,false,0,
Ballinaglera GAA,,54.15962600,-8.01436000,Connacht,Ireland,Leitrim,Leitrim,"https://maps.google.com/?daddr=54.159626,-8.01436",https://twitter.com/glera_gaa,58.00,1327.60,287.00,false,0,
Ballinagore,,53.41442400,-7.44725500,Leinster,Ireland,Westmeath,Westmeath,"https://maps.google.com/?daddr=53.414424,-7.447255",,85.00,935.50,261.00,false,0,
Ballinahinch,,52.79029800,-8.31446900,Munster,Ireland,Tipperary,Tipperary,"https://maps.google.com/?daddr=52.790298,-8.314469",https://twitter.com/ballinahinchgaa,70.00,1143.90,261.00,false,0,
Ballinakill,,52.88069500,-7.30833400,Leinster,Ireland,Laois,Laois,"https://maps.google.com/?daddr=52.880695,-7.308334",https://twitter.com/ballinakill_gaa,154.00,875.40,257.00,false,0,
Ballinameela,,52.10238800,-7.77988100,Munster,Ireland,Waterford,Waterford,"https://maps.google.com/?daddr=52.102388,-7.779881",https://twitter.com/Ballinameela,15.00,1272.00,249.00,false,0,
Ballinameen GAA,,53.90798300,-8.30279500,Connacht,Ireland,Roscommon,Roscommon,"https://maps.google.com/?daddr=53.907983,-8.302795",https://twitter.com/Ballinameen_GAA,81.00,1114.60,272.00,false,0,
Ballinamere,,53.29237800,-7.56426200,Leinster,Ireland,Offaly,Offaly,"https://maps.google.com/?daddr=53.292378,-7.564262",https://twitter.com/ballinameregaa,61.00,931.30,260.00,false,0,
Ballinascarthy,Henry Ford Park,51.66667800,-8.83162100,Munster,Ireland,Cork,Cork,"https://maps.google.com/?daddr=51.666678,-8.831621",https://twitter.com/bealnascairte,45.00,1449.20,256.00,false,0,
Ballinasloe GAA,,53.32510600,-8.23354600,Connacht,Ireland,Galway,Galway,"https://maps.google.com/?daddr=53.325106,-8.233546",https://twitter.com/BallinasloeGAA,50.00,967.00,262.00,false,0,
Ballina Stephenites GAA,James Stephens Park,54.11122000,-9.16223000,Connacht,Ireland,Mayo,Mayo,"https://maps.google.com/?daddr=54.11122,-9.16223",https://twitter.com/NaStiofanaigh,15.00,1268.40,293.00,false,0,
Ballincollig,,51.89266800,-8.58842700,Munster,Ireland,Cork,Cork,"https://maps.google.com/?daddr=51.892668,-8.588427",https://twitter.com/ballincolliggaa,13.00,1271.00,243.00,false,0,
Ballinderreen GAA,,53.18329000,-8.90716000,Connacht,Ireland,Galway,Galway,"https://maps.google.com/?daddr=53.18329,-8.90716",https://twitter.com/ballinderreen,17.00,1158.00,275.00,false,0,
Ballinderry Shamrocks,Shamrock Park,54.65964500,-6.55892100,Ulster,United Kingdom,Derry,Derry,"https://maps.google.com/?daddr=54.659645,-6.558921",https://twitter.com/BallinderryGAC,26.00,906.98,288.00,false,0,
Ballingarry,O'Sullivan Park,52.58617800,-7.54435600,Munster,Ireland,Tipperary,Tipperary,"https://maps.google.com/?daddr=52.586178,-7.544356",https://twitter.com/ballingarry_gaa,191.00,967.60,252.00,false,0,
Ballinhassig,Pitch 1,51.81120700,-8.52916000,Munster,Ireland,Cork,Cork,"https://maps.google.com/?daddr=51.811207,-8.52916",https://twitter.com/ballinhassiggaa,32.00,1277.30,237.00,false,0,
Ballinhassig,Pitch 2,51.80670000,-8.53628000,Munster,Ireland,Cork,Cork,"https://maps.google.com/?daddr=51.8067,-8.53628",https://twitter.com/ballinhassiggaa,55.00,1319.70,244.00,false,0,
Ballinkillen,,52.64878500,-6.92797100,Leinster,Ireland,Carlow,Carlow,"https://maps.google.com/?daddr=52.648785,-6.927971",https://twitter.com/ballinkillenhc,105.00,1025.90,250.00,false,0,
Ballinlough GAA,,53.73388200,-7.05370700,Leinster,Ireland,Meath,Meath,"https://maps.google.com/?daddr=53.733882,-7.053707",https://twitter.com/ballinloughgaa,121.00,951.10,266.00,false,0,
Ballinora GAA,Waterfall,51.86417640,-8.55506430,Munster,Ireland,Cork,Cork,"https://maps.google.com/?daddr=51.8641764,-8.5550643",https://twitter.com/ballinoragaa,94.00,1269.78,264.00,false,0,
Ballinora GAA,,51.85375800,-8.56673900,Munster,Ireland,Cork,Cork,"https://maps.google.com/?daddr=51.853758,-8.566739",https://twitter.com/ballinoragaa,80.00,1277.30,237.00,false,0,
Ballinrobe GAA,Flanagan Park,53.61529700,-9.21160700,Connacht,Ireland,Mayo,Mayo,"https://maps.google.com/?daddr=53.615297,-9.211607",https://twitter.com/ballinrobegaa,28.00,1175.10,261.00,false,0,
Ballintubber GAA,Ray Prendergast Memorial Park,53.75756500,-9.30767500,Connacht,Ireland,Mayo,Mayo,"https://maps.google.com/?daddr=53.757565,-9.307675",https://twitter.com/ballintubberclg,33.00,1327.70,281.00,false,0,
Ballinure,,51.89383700,-8.39531200,Munster,Ireland,Cork,Cork,"https://maps.google.com/?daddr=51.893837,-8.395312",,4.00,1322.50,239.00,false,0,
Ballisodare GAA,,54.21340000,-8.52140000,Connacht,Ireland,Sligo,Sligo,"https://maps.google.com/?daddr=54.2134,-8.5214",,30.00,1281.50,291.00,false,0,
Ballivor GAA,,53.53142000,-6.96628600,Leinster,Ireland,Meath,Meath,"https://maps.google.com/?daddr=53.53142,-6.966286",https://twitter.com/ballivorf,66.00,860.30,253.00,false,0,
Ballon,,52.73540800,-6.79266500,Leinster,Ireland,Carlow,Carlow,"https://maps.google.com/?daddr=52.735408,-6.792665",https://twitter.com/ballongfc,85.00,859.00,246.00,false,0,
Ballybacon / Grange,Goatenbridge,52.27328200,-7.87117400,Munster,Ireland,Tipperary,Tipperary,"https://maps.google.com/?daddr=52.273282,-7.871174",https://twitter.com/ballybacong,34.00,1234.00,267.00,false,0,
Ballybay Pearse Brothers,Pearse Park,54.12625400,-6.87646000,Ulster,Ireland,Monaghan,Monaghan,"https://maps.google.com/?daddr=54.126254,-6.87646",https://twitter.com/PearseBrothers,79.00,949.10,258.00,false,0,
Ballyboughal GAA,,53.52526700,-6.26942200,Leinster,Ireland,Dublin,Dublin,"https://maps.google.com/?daddr=53.525267,-6.269422",https://twitter.com/ballyboughalgfc,43.00,805.50,243.00,false,0,
Ballybricken/Bohermore,,52.55042900,-8.49728800,Munster,Ireland,Limerick,Limerick,"https://maps.google.com/?daddr=52.550429,-8.497288",,81.00,1001.80,259.00,false,0,
Ballybrown,,52.63149000,-8.72877700,Munster,Ireland,Limerick,Limerick,"https://maps.google.com/?daddr=52.63149,-8.728777",https://twitter.com/ballybrowngaa,8.00,1055.40,257.00,false,0,
Ballybrown,,52.63613300,-8.73273100,Munster,Ireland,Limerick,Limerick,"https://maps.google.com/?daddr=52.636133,-8.732731",https://twitter.com/ballybrowngaa,7.00,1055.40,257.00,false,0,
Ballycastle GAA,Tom Langan Park,54.28824300,-9.35875000,Connacht,Ireland,Mayo,Mayo,"https://maps.google.com/?daddr=54.288243,-9.35875",https://twitter.com/ballycgaa,20.00,1334.90,299.00,false,0,
Ballyclough,Dr Croke Park,52.17739300,-8.72864100,Munster,Ireland,Cork,Cork,"https://maps.google.com/?daddr=52.177393,-8.728641",https://twitter.com/gaaballyclough,93.00,1025.10,252.00,false,0,
Ballycommon,,53.28363400,-7.36518500,Leinster,Ireland,Offaly,Offaly,"https://maps.google.com/?daddr=53.283634,-7.365185",https://twitter.com/ballycommongaa,80.00,884.20,249.00,false,0,
Ballycomoyle,,53.72358200,-7.29739300,Leinster,Ireland,Westmeath,Westmeath,"https://maps.google.com/?daddr=53.723582,-7.297393",https://twitter.com/ballycomoyle,103.00,942.90,267.00,false,0,
Ballycroy GAA,Ballycroy,54.02821300,-9.82625200,Connacht,Ireland,Mayo,Mayo,"https://maps.google.com/?daddr=54.028213,-9.826252",https://twitter.com/ballycroyg,22.00,1896.30,305.00,false,0,
Ballycumber,,53.33352500,-7.70648000,Leinster,Ireland,Offaly,Offaly,"https://maps.google.com/?daddr=53.333525,-7.70648",https://twitter.com/ballycumber_gaa,60.00,936.40,269.00,false,0,
Ballydesmond,,52.17835000,-9.23481500,Munster,Ireland,Cork,Cork,"https://maps.google.com/?daddr=52.17835,-9.234815",https://twitter.com/desmonds_gaa,189.00,1289.30,265.00,false,0,
Ballydonoghue,,52.48599400,-9.52090700,Munster,Ireland,Kerry,Kerry,"https://maps.google.com/?daddr=52.485994,-9.520907",https://twitter.com/ballydonoghue,41.00,1247.80,271.00,false,0,
Ballyduff,,52.45130700,-9.66994000,Munster,Ireland,Kerry,Kerry,"https://maps.google.com/?daddr=52.451307,-9.66994",https://twitter.com/ballyduffgaa1,42.00,1387.50,283.00,false,0,
Ballyduff Lower,Tom Cheasty Park,52.23456800,-7.29910000,Munster,Ireland,Waterford,Waterford,"https://maps.google.com/?daddr=52.234568,-7.2991",https://twitter.com/bdufflwr,55.00,1333.30,239.00,false,0,
Ballyduff Upper,Ballyduff Community Field,52.14140700,-8.05202200,Munster,Ireland,Waterford,Waterford,"https://maps.google.com/?daddr=52.141407,-8.052022",https://twitter.com/BallyduffUpper,28.00,1184.50,251.00,false,0,
Ballyea,,52.78712900,-9.02879200,Munster,Ireland,Clare,Clare,"https://maps.google.com/?daddr=52.787129,-9.028792",https://twitter.com/ballyea_club,14.00,1182.00,260.00,false,0,
Ballyfermot De La Salle GAA,,53.34348000,-6.34219800,Leinster,Ireland,Dublin,Dublin,"https://maps.google.com/?daddr=53.34348,-6.342198",,33.00,927.50,245.00,false,0,
Ballyfin,Cappinrush,53.05717000,-7.40628600,Leinster,Ireland,Laois,Laois,"https://maps.google.com/?daddr=53.05717,-7.406286",https://twitter.com/BallyfinGaa,112.00,965.50,256.00,false,0,
Ballyfore,,53.30764700,-7.13629600,Leinster,Ireland,Offaly,Offaly,"https://maps.google.com/?daddr=53.307647,-7.136296",https://twitter.com/ballyforegaa,75.00,860.10,253.00,false,0,
Ballygar Hurling ,,53.52933000,-8.32110000,Connacht,Ireland,Galway,Galway,"https://maps.google.com/?daddr=53.52933,-8.3211",https://twitter.com/ballygarhurling,62.00,972.80,262.00,false,0,
Ballygarvan,Páirc Liam Mhic Cárthaigh,51.82443700,-8.45633900,Munster,Ireland,Cork,Cork,"https://maps.google.com/?daddr=51.824437,-8.456339",https://twitter.com/ballygarvangaa,26.00,1336.60,234.00,false,0,
Ballygiblin,,52.27423200,-8.19959600,Munster,Ireland,Cork,Cork,"https://maps.google.com/?daddr=52.274232,-8.199596",https://twitter.com/ballygiblingaa,113.00,1336.40,266.00,false,0,
Ballygunner,James McGinn Park,52.22704400,-7.06575400,Munster,Ireland,Waterford,Waterford,"https://maps.google.com/?daddr=52.227044,-7.065754",https://twitter.com/ballygunnerHc,50.00,1269.50,252.00,false,0,
Ballyhaise GAA,Annalee Park,54.04625300,-7.31470900,Ulster,Ireland,Cavan,Cavan,"https://maps.google.com/?daddr=54.046253,-7.314709",https://twitter.com/ballyhaisegaa,73.00,955.12,290.00,false,0,
Ballyhale Shamrocks,Páirc na Seamróg,52.46966400,-7.20429600,Leinster,Ireland,Kilkenny,Kilkenny,"https://maps.google.com/?daddr=52.469664,-7.204296",https://twitter.com/ballyhalegaa,53.00,1086.80,244.00,false,0,
Ballyhaunis GAA,Ballyhaunis GAA Park,53.76339900,-8.79207800,Connacht,Ireland,Mayo,Mayo,"https://maps.google.com/?daddr=53.763399,-8.792078",https://twitter.com/ballyhaunisgaa,107.00,1230.10,280.00,false,0,
Ballyhea,,52.32655000,-8.66570000,Munster,Ireland,Cork,Cork,"https://maps.google.com/?daddr=52.32655,-8.6657",https://twitter.com/ballyheagaa,107.00,1015.80,254.00,false,0,
Ballyheigue,John Joe O'Sullivan Park,52.38664200,-9.83151100,Munster,Ireland,Kerry,Kerry,"https://maps.google.com/?daddr=52.386642,-9.831511",https://twitter.com/ballyheiguegaa,4.00,1392.90,283.00,false,0,
Ballyhogue GAA,,52.43166400,-6.60571100,Leinster,Ireland,Wexford,Wexford,"https://maps.google.com/?daddr=52.431664,-6.605711",https://twitter.com/ballyhogueclub,52.00,1141.00,235.00,false,0,
Ballyholland Harps,Fr. Lynch Park,54.16612800,-6.31191900,Ulster,United Kingdom,Down,Down,"https://maps.google.com/?daddr=54.166128,-6.311919",https://twitter.com/harpsgac,82.00,980.99,287.00,false,0,
Ballyhooly,,52.14924400,-8.39468900,Munster,Ireland,Cork,Cork,"https://maps.google.com/?daddr=52.149244,-8.394689",https://twitter.com/ballyhoolygaa,61.00,1154.60,250.00,false,0,
Ballykelly,,53.15679200,-7.05305000,Leinster,Ireland,Kildare,Kildare,"https://maps.google.com/?daddr=53.156792,-7.05305",,67.00,906.30,256.00,false,0,
Ballykinlar GAA,Tadhg Barry Memorial Park,54.25744500,-5.79007600,Ulster,United Kingdom,Down,Down,"https://maps.google.com/?daddr=54.257445,-5.790076",https://twitter.com/ballykinlargac,13.00,1235.59,278.00,false,0,
Ballylanders,,52.37065200,-8.35185700,Munster,Ireland,Limerick,Limerick,"https://maps.google.com/?daddr=52.370652,-8.351857",https://twitter.com/gaaballylanders,143.00,1163.90,269.00,false,0,
Ballylinan,Aughanure,52.93877700,-7.03922600,Leinster,Ireland,Laois,Laois,"https://maps.google.com/?daddr=52.938777,-7.039226",,78.00,878.90,253.00,false,0,
Ballylongford,,52.54415200,-9.47496800,Munster,Ireland,Kerry,Kerry,"https://maps.google.com/?daddr=52.544152,-9.474968",https://twitter.com/ballylongfordg,6.00,1269.20,277.00,false,0,
Ballylooby/Castlegrace,,52.31586500,-8.00130200,Munster,Ireland,Tipperary,Tipperary,"https://maps.google.com/?daddr=52.315865,-8.001302",https://twitter.com/ballyloobygaa,60.00,1039.40,248.00,false,0,
Ballymacelligott,,52.25234700,-9.59797400,Munster,Ireland,Kerry,Kerry,"https://maps.google.com/?daddr=52.252347,-9.597974",https://twitter.com/ballymac_gaa,30.00,1354.50,277.00,false,0,
Ballymachugh GAA,Páirc Shíleann,53.83584100,-7.35314800,Ulster,Ireland,Cavan,Cavan,"https://maps.google.com/?daddr=53.835841,-7.353148",https://twitter.com/ballymachughgaa,69.00,955.92,274.00,false,0,
Ballymacnab Round Towers,Páirc na nGael,54.28979300,-6.63239600,Ulster,United Kingdom,Armagh,Armagh,"https://maps.google.com/?daddr=54.289793,-6.632396",https://twitter.com/ballymacnab_gaa,134.00,911.20,282.00,false,0,
Ballymahon GAA,Leo Casey Park,53.56943200,-7.76097000,Leinster,Ireland,Longford,Longford,"https://maps.google.com/?daddr=53.569432,-7.76097",https://twitter.com/ballymahon1889,46.00,932.00,266.00,false,0,
Ballymanus GAA,,52.87136100,-6.41030000,Leinster,Ireland,Wicklow,Wicklow,"https://maps.google.com/?daddr=52.871361,-6.4103",https://twitter.com/ballymanusgaa,209.00,1268.20,280.00,false,0,
Ballymartin GAA Club,St. Joseph's Park,54.07351500,-5.96181600,Ulster,United Kingdom,Down,Down,"https://maps.google.com/?daddr=54.073515,-5.961816",https://twitter.com/ballymartingac,19.00,1155.67,279.00,false,0,
Ballymartle,,51.77403300,-8.49087500,Munster,Ireland,Cork,Cork,"https://maps.google.com/?daddr=51.774033,-8.490875",https://twitter.com/ballymartlegaa,55.00,1319.70,244.00,false,0,
Ballymore,,53.49991700,-7.66169000,Leinster,Ireland,Westmeath,Westmeath,"https://maps.google.com/?daddr=53.499917,-7.66169",,77.00,961.10,272.00,false,0,
Ballymore,Ballybrien,53.77169000,-7.53727100,Leinster,Ireland,Longford,Longford,"https://maps.google.com/?daddr=53.77169,-7.537271",https://twitter.com/gaaballymore,85.00,997.40,269.00,false,0,
Ballymore Eustace,,53.12997400,-6.58714200,Leinster,Ireland,Kildare,Kildare,"https://maps.google.com/?daddr=53.129974,-6.587142",https://twitter.com/bme_gaa,183.00,1034.70,268.00,false,0,
Ballymote GAA,Brother Walfrid/Corran Park,54.09554500,-8.51951800,Connacht,Ireland,Sligo,Sligo,"https://maps.google.com/?daddr=54.095545,-8.519518",https://twitter.com/gaaballymote,68.00,1187.50,279.00,false,0,
Ballymun Kickhams,,53.41733400,-6.26288400,Leinster,Ireland,Dublin,Dublin,"https://maps.google.com/?daddr=53.417334,-6.262884",https://twitter.com/ballymungaa,63.00,817.40,238.00,false,0,
Ballynacargy,Moynihan Park,53.58158400,-7.52249500,Leinster,Ireland,Westmeath,Westmeath,"https://maps.google.com/?daddr=53.581584,-7.522495",https://twitter.com/ballynacargygaa,70.00,971.20,268.00,false,0,
Ballyphephane,,51.87882400,-8.47586200,Munster,Ireland,Cork,Cork,"https://maps.google.com/?daddr=51.878824,-8.475862",,15.00,1277.30,237.00,false,0,
Ballypickas,Cobbler's Hill,52.91321000,-7.29457400,Leinster,Ireland,Laois,Laois,"https://maps.google.com/?daddr=52.91321,-7.294574",https://twitter.com/ballypickasgaa,177.00,875.40,257.00,false,0,
Ballyporeen/Skeheenarinky Juvenile,Ballyporeen/Skeheenarinky GAA Club,52.34894000,-7.41976300,Munster,Ireland,Tipperary,Tipperary,"https://maps.google.com/?daddr=52.34894,-7.419763",https://twitter.com/ballyporeengaa,6.00,1261.50,246.00,false,0,
Ballyroan Abbey,,52.94353500,-7.29394200,Leinster,Ireland,Laois,Laois,"https://maps.google.com/?daddr=52.943535,-7.293942",,137.00,860.60,253.00,false,0,
Ballysaggart,The Scrloim,52.18390200,-7.99184200,Munster,Ireland,Waterford,Waterford,"https://maps.google.com/?daddr=52.183902,-7.991842",https://twitter.com/ballysaggartgaa,216.00,1259.30,264.00,false,0,
Ballyskenagh,,52.95938000,-7.84176000,Leinster,Ireland,Offaly,Offaly,"https://maps.google.com/?daddr=52.95938,-7.84176",https://twitter.com/skenaghvillagaa,71.00,1010.70,264.00,false,0,
Ballysteen,,52.64672000,-8.93794500,Munster,Ireland,Limerick,Limerick,"https://maps.google.com/?daddr=52.64672,-8.937945",https://twitter.com/ballysteengaa,25.00,1067.00,254.00,false,0,
Ballyteague,,53.26600000,-6.86581600,Leinster,Ireland,Kildare,Kildare,"https://maps.google.com/?daddr=53.266,-6.865816",https://twitter.com/ballyteaguegfc,80.00,875.10,258.00,false,0,
Ballyvary Hurling,Ballyvary,53.88897000,-9.16028000,Connacht,Ireland,Mayo,Mayo,"https://maps.google.com/?daddr=53.88897,-9.16028",https://twitter.com/ballyvaryhc,39.00,1291.30,275.00,false,0,
Ballyvaughan-Fanore,,53.11350200,-9.15491600,Munster,Ireland,Clare,Clare,"https://maps.google.com/?daddr=53.113502,-9.154916",,11.00,1357.10,281.00,false,0,
Baltinglass GAA,,52.93127500,-6.68433100,Leinster,Ireland,Wicklow,Wicklow,"https://maps.google.com/?daddr=52.931275,-6.684331",https://twitter.com/baltogaa,128.00,859.00,252.00,false,0,
Bandon,Charlie Hurley Park,51.73954200,-8.74245500,Munster,Ireland,Cork,Cork,"https://maps.google.com/?daddr=51.739542,-8.742455",https://twitter.com/bandongaa,33.00,1400.00,249.00,false,0,
Banner,,52.83950200,-9.02086300,Munster,Ireland,Clare,Clare,"https://maps.google.com/?daddr=52.839502,-9.020863",https://twitter.com/bannergaaenni,17.00,1064.30,265.00,false,0,
Bannow Ballymitty GAA,,52.25684600,-6.73375900,Leinster,Ireland,Wexford,Wexford,"https://maps.google.com/?daddr=52.256846,-6.733759",https://twitter.com/bannowbmittygaa,49.00,1222.30,252.00,false,0,
Banogue,,52.47788600,-8.68279200,Munster,Ireland,Limerick,Limerick,"https://maps.google.com/?daddr=52.477886,-8.682792",https://twitter.com/banoguegaa,31.00,1002.80,257.00,false,0,
Banteer,,52.12792100,-8.89839400,Munster,Ireland,Cork,Cork,"https://maps.google.com/?daddr=52.127921,-8.898394",https://twitter.com/banteer_lyregaa,78.00,1116.00,255.00,false,0,
Bantry Blues,Wolfe Tone Park,51.68806400,-9.44768900,Munster,Ireland,Cork,Cork,"https://maps.google.com/?daddr=51.688064,-9.447689",https://twitter.com/bantryblues,21.00,1811.60,280.00,false,0,
Barna GAA,Barna Pitch (New),53.26767410,-9.16355710,Connacht,Ireland,Galway,Galway,"https://maps.google.com/?daddr=53.2676741,-9.1635571",https://twitter.com/BarnaGAA,53.00,1279.70,282.00,false,0,
Barna GAA,Barna Pitch,53.26802000,-9.16301800,Connacht,Ireland,Galway,Galway,"https://maps.google.com/?daddr=53.26802,-9.163018",https://twitter.com/BarnaGAA,53.00,1279.70,282.00,false,0,
Barndarrig GAA,,52.92840500,-6.15539000,Leinster,Ireland,Wicklow,Wicklow,"https://maps.google.com/?daddr=52.928405,-6.15539",https://twitter.com/barndarriggaa,146.00,1164.50,252.00,false,0,
Barrowhouse,,52.94714400,-6.99434200,Leinster,Ireland,Laois,Laois,"https://maps.google.com/?daddr=52.947144,-6.994342",https://twitter.com/barrowhousegaa,65.00,904.20,245.00,false,0,
Barrow Rangers,Páirc an Phobail,52.68369200,-7.02696600,Leinster,Ireland,Kilkenny,Kilkenny,"https://maps.google.com/?daddr=52.683692,-7.026966",https://twitter.com/barrowrangers,60.00,922.50,244.00,false,0,
Barryroe,,51.60573100,-8.73489200,Munster,Ireland,Cork,Cork,"https://maps.google.com/?daddr=51.605731,-8.734892",https://twitter.com/barryroegaaclub,47.00,1361.00,263.00,false,0,
Beagh GAA,,53.01649700,-8.82282900,Connacht,Ireland,Galway,Galway,"https://maps.google.com/?daddr=53.016497,-8.822829",https://twitter.com/beaghhc,34.00,1111.90,267.00,false,0,
Béal Athan Ghaorthaidh,,51.85067500,-9.23088000,Munster,Ireland,Cork,Cork,"https://maps.google.com/?daddr=51.850675,-9.23088",https://twitter.com/bealathanggaa,89.00,1489.60,251.00,false,0,
Beale,,52.50562000,-9.67169400,Munster,Ireland,Kerry,Kerry,"https://maps.google.com/?daddr=52.50562,-9.671694",https://twitter.com/bealegaa,17.00,1387.50,283.00,false,0,
"Beann Dhearg GAA, Kilclief",St. Malachy's Park,54.34173700,-5.54463800,Ulster,United Kingdom,Down,Down,"https://maps.google.com/?daddr=54.341737,-5.544638",https://twitter.com/cillcleithe1901,2.00,1008.76,271.00,false,0,
Beann Eadair GAA,,53.37908300,-6.06748700,Leinster,Ireland,Dublin,Dublin,"https://maps.google.com/?daddr=53.379083,-6.067487",https://twitter.com/beanneadairclg,104.00,931.70,241.00,false,0,
Beaufort,,52.06793100,-9.63933300,Munster,Ireland,Kerry,Kerry,"https://maps.google.com/?daddr=52.067931,-9.639333",https://twitter.com/liosaphuca,38.00,1436.80,273.00,false,0,
Bective GAA,,53.61335000,-6.66967100,Leinster,Ireland,Meath,Meath,"https://maps.google.com/?daddr=53.61335,-6.669671",https://twitter.com/bectivegfc,50.00,819.60,253.00,false,0,
Belgooly,,51.73396100,-8.48678100,Munster,Ireland,Cork,Cork,"https://maps.google.com/?daddr=51.733961,-8.486781",https://twitter.com/belgoolygaa,5.00,1321.20,252.00,false,0,
Belmont,,53.24246500,-7.93855100,Leinster,Ireland,Offaly,Offaly,"https://maps.google.com/?daddr=53.242465,-7.938551",https://twitter.com/belmont_gaa,43.00,922.10,261.00,false,0,
Belmullet GAA,"Belmullet GAA Pitch, Tallagh",54.24866000,-9.99790000,Connacht,Ireland,Mayo,Mayo,"https://maps.google.com/?daddr=54.24866,-9.9979",https://twitter.com/BelmulletGaa,12.00,1627.50,309.00,false,0,
Belturbet Rory O'Moores,Rory O'Moore Park,54.09987800,-7.43811200,Ulster,Ireland,Cavan,Cavan,"https://maps.google.com/?daddr=54.099878,-7.438112",,70.00,991.62,289.00,false,0,
Bennettsbridge,,52.59514000,-7.18098600,Leinster,Ireland,Kilkenny,Kilkenny,"https://maps.google.com/?daddr=52.59514,-7.180986",https://twitter.com/thebridgegaa,41.00,886.90,244.00,false,0,
Beragh Red Knights,St. Mary's Park,54.54966600,-7.15241700,Ulster,United Kingdom,Tyrone,Tyrone,"https://maps.google.com/?daddr=54.549666,-7.152417",https://twitter.com/beraghgaa,99.00,1039.75,295.00,false,0,
Bere Island,,51.63190900,-9.82074800,Munster,Ireland,Cork,Cork,"https://maps.google.com/?daddr=51.631909,-9.820748",https://twitter.com/bereislandgaa,8.00,1791.60,283.00,false,0,
Birr,St. Brendan's Park,53.09131700,-7.90886100,Leinster,Ireland,Offaly,Offaly,"https://maps.google.com/?daddr=53.091317,-7.908861",https://twitter.com/birrclg,48.00,980.70,266.00,false,0,
Bishopstown,,51.88461200,-8.52159300,Munster,Ireland,Cork,Cork,"https://maps.google.com/?daddr=51.884612,-8.521593",https://twitter.com/gaabishopstown,38.00,1271.00,243.00,false,0,
Black and Whites,Tom Walsh Park,52.59172600,-6.95931600,Leinster,Ireland,Kilkenny,Kilkenny,"https://maps.google.com/?daddr=52.591726,-6.959316",https://twitter.com/black_whitesgaa,52.00,1025.90,250.00,false,0,
Blackhall Gaels,Kilcloon,53.43725300,-6.60234200,Leinster,Ireland,Meath,Meath,"https://maps.google.com/?daddr=53.437253,-6.602342",https://twitter.com/blackhallgaels,91.00,805.60,240.00,false,0,
Blackhall Gaels,Batterstown,53.47315700,-6.54526300,Leinster,Ireland,Meath,Meath,"https://maps.google.com/?daddr=53.473157,-6.545263",https://twitter.com/blackhallgaels,90.00,805.60,240.00,false,0,
Blackhill Emeralds,Páirc na Smaragaidí,54.11156600,-6.76232000,Ulster,Ireland,Monaghan,Monaghan,"https://maps.google.com/?daddr=54.111566,-6.76232",https://twitter.com/blackhillgaa,143.00,949.10,258.00,false,0,
Blackrock,,52.36258600,-8.47289100,Munster,Ireland,Limerick,Limerick,"https://maps.google.com/?daddr=52.362586,-8.472891",https://twitter.com/blackrockgaa,142.00,1067.40,265.00,false,0,
Blackrock,,51.89313900,-8.41828600,Munster,Ireland,Cork,Cork,"https://maps.google.com/?daddr=51.893139,-8.418286",https://twitter.com/RockiesCork,16.00,1322.50,239.00,false,0,
Blarney,,51.92909900,-8.56123600,Munster,Ireland,Cork,Cork,"https://maps.google.com/?daddr=51.929099,-8.561236",https://twitter.com/blarneygaa,38.00,1271.00,243.00,false,0,
Blessington GAA,,53.18093400,-6.53889900,Leinster,Ireland,Wicklow,Wicklow,"https://maps.google.com/?daddr=53.180934,-6.538899",https://twitter.com/blessingtongaa,216.00,910.00,262.00,false,0,
Boardsmill GAA,,53.52598500,-6.87256300,Leinster,Ireland,Meath,Meath,"https://maps.google.com/?daddr=53.525985,-6.872563",https://twitter.com/boardsmillgaa,61.00,860.30,253.00,false,0,
Bodyke,,52.92364200,-8.65044400,Munster,Ireland,Clare,Clare,"https://maps.google.com/?daddr=52.923642,-8.650444",https://twitter.com/bodykegaa,82.00,1213.60,273.00,false,0,
Boherbue,,52.15302700,-9.07861000,Munster,Ireland,Cork,Cork,"https://maps.google.com/?daddr=52.153027,-9.07861",https://twitter.com/boherbuegaa,203.00,1199.50,261.00,false,0,
Boherlahan/Dualla,,52.56991800,-7.89559500,Munster,Ireland,Tipperary,Tipperary,"https://maps.google.com/?daddr=52.569918,-7.895595",https://twitter.com/boherlahandgaa,92.00,943.10,244.00,false,0,
"Bohola-Moy Davitts, Foxford",Srath Garbh,53.99189700,-9.11520100,Connacht,Ireland,Mayo,Mayo,"https://maps.google.com/?daddr=53.991897,-9.115201",https://twitter.com/moydavitts,8.00,1220.70,292.00,false,0,
Bonniconlon GAA,Bonniconlon,54.10808400,-9.02418000,Connacht,Ireland,Mayo,Mayo,"https://maps.google.com/?daddr=54.108084,-9.02418",https://twitter.com/bonniconlon_gaa,75.00,1268.40,293.00,false,0,
Bornacoola GAA,Páirc Barr na Cuille,53.86110800,-7.91320600,Connacht,Ireland,Leitrim,Leitrim,"https://maps.google.com/?daddr=53.861108,-7.913206",https://twitter.com/BornacoolaGAA,42.00,1025.80,266.00,false,0,
Borris-Ileigh,Bishop Quinlan Park,52.74968700,-7.95395300,Munster,Ireland,Tipperary,Tipperary,"https://maps.google.com/?daddr=52.749687,-7.953953",https://twitter.com/borris_gaa,97.00,941.60,248.00,false,0,
Borris in Ossory,O'Keefe Park,52.94123200,-7.61857100,Leinster,Ireland,Laois,Laois,"https://maps.google.com/?daddr=52.941232,-7.618571",,110.00,995.60,268.00,false,0,
Borrisokane,Páirc Gairnéir,52.99610400,-8.12493300,Munster,Ireland,Tipperary,Tipperary,"https://maps.google.com/?daddr=52.996104,-8.124933",,57.00,940.40,255.00,false,0,
Boyle GAA,Abbey Park,53.97490300,-8.29739900,Connacht,Ireland,Roscommon,Roscommon,"https://maps.google.com/?daddr=53.974903,-8.297399",https://twitter.com/boylegaa,53.00,1166.00,273.00,false,0,
Bracknagh,,53.21718400,-7.14132700,Leinster,Ireland,Offaly,Offaly,"https://maps.google.com/?daddr=53.217184,-7.141327",https://twitter.com/bracknaghgaa0,69.00,885.40,256.00,false,0,
Bray Emmets GAA,,53.20774600,-6.12736000,Leinster,Ireland,Wicklow,Wicklow,"https://maps.google.com/?daddr=53.207746,-6.12736",https://twitter.com/brayemmets,22.00,1159.80,252.00,false,0,
Breaffy GAA,Breaffy,53.84562900,-9.23378900,Connacht,Ireland,Mayo,Mayo,"https://maps.google.com/?daddr=53.845629,-9.233789",https://twitter.com/BreaffyGAA,36.00,1225.90,275.00,false,0,
Bredagh GAA,Cherryvale,54.57344000,-5.91051000,Ulster,United Kingdom,Down,Down,"https://maps.google.com/?daddr=54.57344,-5.91051",https://twitter.com/BredaghGAC1,18.00,958.83,280.00,false,0,
"Brian Boru GAA, Kinawley",Patrick McManus Park,54.21735900,-7.67633600,Ulster,United Kingdom,Fermanagh,Fermanagh,"https://maps.google.com/?daddr=54.217359,-7.676336",https://twitter.com/kinawleygfc,53.00,1044.66,288.00,false,0,
Brian Dillons,Tank Field,51.94245500,-8.44259600,Munster,Ireland,Cork,Cork,"https://maps.google.com/?daddr=51.942455,-8.442596",https://twitter.com/briandillonsgaa,130.00,1322.50,239.00,false,0,
Brian Óg's GAA,Páirc Bhríd,55.03321400,-7.31057000,Ulster,United Kingdom,Derry,Derry,"https://maps.google.com/?daddr=55.033214,-7.31057",https://twitter.com/brianogs,31.00,1017.99,293.00,false,0,
Brickey Rangers,Bushy Park,52.08866400,-7.69077400,Munster,Ireland,Waterford,Waterford,"https://maps.google.com/?daddr=52.088664,-7.690774",https://twitter.com/brickeyrangers,18.00,1372.80,254.00,false,0,
Bride Rovers,Rathcormac,52.07218100,-8.28581000,Munster,Ireland,Cork,Cork,"https://maps.google.com/?daddr=52.072181,-8.28581",https://twitter.com/brideroversgaa,54.00,1242.30,253.00,false,0,
Bright GAA,Bright GAA Ground,54.29403100,-5.71515600,Ulster,United Kingdom,Down,Down,"https://maps.google.com/?daddr=54.294031,-5.715156",https://twitter.com/brightclubldn,40.00,1020.09,268.00,false,0,
Broadford,Balrinnet,53.39009200,-6.99670300,Leinster,Ireland,Kildare,Kildare,"https://maps.google.com/?daddr=53.390092,-6.996703",https://twitter.com/broadfordhc,88.00,851.40,255.00,false,0,
Broadford,,52.80335700,-8.63430600,Munster,Ireland,Clare,Clare,"https://maps.google.com/?daddr=52.803357,-8.634306",https://twitter.com/broadfordgaa,35.00,1251.80,268.00,false,0,
Brosna,,52.31010500,-9.26075200,Munster,Ireland,Kerry,Kerry,"https://maps.google.com/?daddr=52.310105,-9.260752",https://twitter.com/BROSNAGAA,176.00,1283.70,270.00,false,0,
Brosna Gaels,,53.33348800,-7.70658700,Leinster,Ireland,Offaly,Offaly,"https://maps.google.com/?daddr=53.333488,-7.706587",https://twitter.com/brosnagaels,60.00,936.40,269.00,false,0,
Brownstown,Fr Reilly Memorial Park,53.66230900,-7.10819000,Leinster,Ireland,Westmeath,Westmeath,"https://maps.google.com/?daddr=53.662309,-7.10819",,100.00,923.80,263.00,false,0,
Bruff,,52.47504100,-8.54095200,Munster,Ireland,Limerick,Limerick,"https://maps.google.com/?daddr=52.475041,-8.540952",https://twitter.com/_bruffgaa,76.00,1017.10,259.00,false,0,
Bruree,,52.42146600,-8.64948800,Munster,Ireland,Limerick,Limerick,"https://maps.google.com/?daddr=52.421466,-8.649488",https://twitter.com/brureegaa,69.00,1019.00,256.00,false,0,
Bryansford GAA,St. Patrick's Park,54.21791100,-5.89195700,Ulster,United Kingdom,Down,Down,"https://maps.google.com/?daddr=54.217911,-5.891957",https://twitter.com/bryansfordgaa,3.00,1235.59,278.00,false,0,
Buffers Alley,,52.56352000,-6.32730600,Leinster,Ireland,Wexford,Wexford,"https://maps.google.com/?daddr=52.56352,-6.327306",https://twitter.com/buffersalley,65.00,1015.50,241.00,false,0,
Bunbrosna,,53.58622300,-7.44492500,Leinster,Ireland,Westmeath,Westmeath,"https://maps.google.com/?daddr=53.586223,-7.444925",https://twitter.com/bunbrosnagaa,91.00,981.40,266.00,false,0,
Buncrana GAA,The Scarvey,55.13009500,-7.45580600,Ulster,Ireland,Donegal,Donegal,"https://maps.google.com/?daddr=55.130095,-7.455806",https://twitter.com/buncranagaa,4.00,1274.79,302.00,false,0,
Bunmahon,,52.15265300,-7.36935400,Munster,Ireland,Waterford,Waterford,"https://maps.google.com/?daddr=52.152653,-7.369354",https://twitter.com/bunmahongaa,54.00,1395.90,257.00,false,0,
Bunninadden GAA,Bunninadden Community Park,54.03902100,-8.57416400,Connacht,Ireland,Sligo,Sligo,"https://maps.google.com/?daddr=54.039021,-8.574164",https://twitter.com/bunninaddengaa,79.00,1137.00,274.00,false,0,
Burgess,Kilcolman,52.85675300,-8.26160300,Munster,Ireland,Tipperary,Tipperary,"https://maps.google.com/?daddr=52.856753,-8.261603",,63.00,1082.10,262.00,false,0,
Burrishoole GAA,"McGovern Park, Newport",53.88821300,-9.54055600,Connacht,Ireland,Mayo,Mayo,"https://maps.google.com/?daddr=53.888213,-9.540556",https://twitter.com/burrishoolegaa,5.00,1547.60,285.00,false,0,
Burt GAA,Hibernian Park,55.03165900,-7.46040200,Ulster,Ireland,Donegal,Donegal,"https://maps.google.com/?daddr=55.031659,-7.460402",,3.00,1034.63,296.00,false,0,
Butlersbridge GAA,Emmet Park,54.04795400,-7.37503500,Ulster,Ireland,Cavan,Cavan,"https://maps.google.com/?daddr=54.047954,-7.375035",https://twitter.com/bbridgegaa,58.00,955.12,290.00,false,0,
Butlerstown,,52.23874200,-7.18015200,Munster,Ireland,Waterford,Waterford,"https://maps.google.com/?daddr=52.238742,-7.180152",https://twitter.com/butlerstowngaa,25.00,1240.40,236.00,false,0,
Buttevant,,52.23639800,-8.67335600,Munster,Ireland,Cork,Cork,"https://maps.google.com/?daddr=52.236398,-8.673356",https://twitter.com/buttevantgaa,88.00,1054.50,254.00,false,0,
Caherline,,52.58791600,-8.46562500,Munster,Ireland,Limerick,Limerick,"https://maps.google.com/?daddr=52.587916,-8.465625",https://twitter.com/caherlinegaa,73.00,1162.60,263.00,false,0,
Caherlistrane GAA,,53.49120200,-9.01954000,Connacht,Ireland,Galway,Galway,"https://maps.google.com/?daddr=53.491202,-9.01954",https://twitter.com/_caherlistrane_,34.00,1205.90,262.00,false,0,
Cahir,Cahir GAA Pitch,52.37235500,-7.92476100,Munster,Ireland,Tipperary,Tipperary,"https://maps.google.com/?daddr=52.372355,-7.924761",,48.00,1039.40,248.00,false,0,
Caiseal Gaels,,53.95612000,-8.70340000,Connacht,Ireland,Mayo,Mayo,"https://maps.google.com/?daddr=53.95612,-8.7034",https://twitter.com/caisealgaels,106.00,1192.70,277.00,false,0,
Caltra GAA,,53.43560000,-8.43020200,Connacht,Ireland,Galway,Galway,"https://maps.google.com/?daddr=53.4356,-8.430202",https://twitter.com/caltra_gaa,75.00,1027.10,264.00,false,0,
Camogue Rovers,,52.51057600,-8.61639800,Munster,Ireland,Limerick,Limerick,"https://maps.google.com/?daddr=52.510576,-8.616398",,52.00,1002.80,257.00,false,0,
Camross,,52.99723700,-7.56170700,Leinster,Ireland,Laois,Laois,"https://maps.google.com/?daddr=52.997237,-7.561707",,144.00,995.60,268.00,false,0,
Canovee,,51.90270600,-8.85386400,Munster,Ireland,Cork,Cork,"https://maps.google.com/?daddr=51.902706,-8.853864",https://twitter.com/canoveegaa,56.00,1397.80,245.00,false,0,
Cappagh,,53.39677720,-6.75150720,Leinster,Ireland,Kildare,Kildare,"https://maps.google.com/?daddr=53.3967772,-6.7515072",https://twitter.com/cappaghgaa,95.00,849.00,253.00,false,0,
Cappagh,,52.55223300,-8.93794100,Munster,Ireland,Limerick,Limerick,"https://maps.google.com/?daddr=52.552233,-8.937941",,43.00,1030.80,252.00,false,0,
Cappagh Gaels,Ballinamullan,54.60147700,-7.25473800,Ulster,United Kingdom,Tyrone,Tyrone,"https://maps.google.com/?daddr=54.601477,-7.254738",,84.00,1011.07,291.00,false,0,
Cappamore,,52.62218800,-8.33908500,Munster,Ireland,Limerick,Limerick,"https://maps.google.com/?daddr=52.622188,-8.339085",https://twitter.com/cappamoregaa,55.00,1162.60,263.00,false,0,
Cappataggle,,53.27078000,-8.40880000,Connacht,Ireland,Galway,Galway,"https://maps.google.com/?daddr=53.27078,-8.4088",https://twitter.com/cappataggle,127.00,1011.70,257.00,false,0,
Cappawhite,,52.57793400,-8.16504600,Munster,Ireland,Tipperary,Tipperary,"https://maps.google.com/?daddr=52.577934,-8.165046",,120.00,1084.80,249.00,false,0,
Cappincur,,53.27375100,-7.44987500,Leinster,Ireland,Offaly,Offaly,"https://maps.google.com/?daddr=53.273751,-7.449875",https://twitter.com/cappincurgaa,64.00,953.90,252.00,false,0,
Cappoquin / Affane,,52.14386200,-7.85077900,Munster,Ireland,Waterford,Waterford,"https://maps.google.com/?daddr=52.143862,-7.850779",https://twitter.com/CappoquinAffane,3.00,1272.00,249.00,false,0,
Caragh,St. Farnan's Park,53.28376100,-6.76284500,Leinster,Ireland,Kildare,Kildare,"https://maps.google.com/?daddr=53.283761,-6.762845",,88.00,875.10,258.00,false,0,
Carbery Rangers,Rosscarbery Pitch,51.57572910,-9.03694670,Munster,Ireland,Cork,Cork,"https://maps.google.com/?daddr=51.5757291,-9.0369467",https://twitter.com/carberygaa,7.00,1460.70,266.00,false,0,
Carbery Rangers,,51.58497300,-9.02521400,Munster,Ireland,Cork,Cork,"https://maps.google.com/?daddr=51.584973,-9.025214",https://twitter.com/carberygaa,25.00,1460.70,266.00,false,0,
Carbury,,53.34443500,-6.92729600,Leinster,Ireland,Kildare,Kildare,"https://maps.google.com/?daddr=53.344435,-6.927296",https://twitter.com/gaacarbury,89.00,866.90,251.00,false,0,
"Cardinal O'Donnell's, Belfast",MacRory Park,54.59054500,-5.97270200,Ulster,United Kingdom,Antrim,Antrim,"https://maps.google.com/?daddr=54.590545,-5.972702",https://twitter.com/gacodonnells,36.00,977.48,278.00,false,0,
Carey Faughs GAA ,"St. Patrick's Park, Ballyvoy",55.19860000,-6.19380000,Ulster,United Kingdom,Antrim,Antrim,"https://maps.google.com/?daddr=55.1986,-6.1938",,51.00,1207.41,291.00,false,0,
Carlow GAA,Dr. Cullen Park,52.84706300,-6.91644600,Leinster,Ireland,Carlow,Carlow,"https://maps.google.com/?daddr=52.847063,-6.916446",,57.00,877.20,242.00,false,0,
Carlow Town,,52.84861800,-6.91498300,Leinster,Ireland,Carlow,Carlow,"https://maps.google.com/?daddr=52.848618,-6.914983",,59.00,877.20,242.00,false,0,
Carnaross GAA,,53.74665800,-6.93998900,Leinster,Ireland,Meath,Meath,"https://maps.google.com/?daddr=53.746658,-6.939989",https://twitter.com/carnarossgfc,85.00,931.40,255.00,false,0,
Carndonagh GAA,O'Doherty Park,55.25936000,-7.24576600,Ulster,Ireland,Donegal,Donegal,"https://maps.google.com/?daddr=55.25936,-7.245766",https://twitter.com/CarnGaa,20.00,1277.80,301.00,false,0,
Carnew Emmets GAA,,52.71490100,-6.49321600,Leinster,Ireland,Wicklow,Wicklow,"https://maps.google.com/?daddr=52.714901,-6.493216",,99.00,1010.30,250.00,false,0,
Carnmore GAA,,53.30687608,-8.90632524,Connacht,Ireland,Galway,Galway,"https://maps.google.com/?daddr=53.30687608,-8.906325244",https://twitter.com/carnmoregaa,35.00,1151.00,267.00,false,0,
Carraig na bhFear,,51.99161800,-8.47592400,Munster,Ireland,Cork,Cork,"https://maps.google.com/?daddr=51.991618,-8.475924",https://twitter.com/carraiggaa,123.00,1297.70,250.00,false,0,
Carrick Davins,Páirc Daibhín,52.34892000,-7.41983800,Munster,Ireland,Tipperary,Tipperary,"https://maps.google.com/?daddr=52.34892,-7.419838",,6.00,1261.50,246.00,false,0,
Carrickedmond,Michael Moran Park,53.60234400,-7.71144000,Leinster,Ireland,Longford,Longford,"https://maps.google.com/?daddr=53.602344,-7.71144",https://twitter.com/carrickedmond,82.00,932.00,266.00,false,0,
Carrickmacross Emmets,Emmet Park,53.98506900,-6.72126000,Ulster,Ireland,Monaghan,Monaghan,"https://maps.google.com/?daddr=53.985069,-6.72126",https://twitter.com/carrickemmets,50.00,912.90,260.00,false,0,
Carrickshock,,52.45366300,-7.25029800,Leinster,Ireland,Kilkenny,Kilkenny,"https://maps.google.com/?daddr=52.453663,-7.250298",https://twitter.com/carrickshockgaa,140.00,1086.80,244.00,false,0,
Carrigaline,,51.81156400,-8.38015700,Munster,Ireland,Cork,Cork,"https://maps.google.com/?daddr=51.811564,-8.380157",https://twitter.com/carrigalinegaa,6.00,1336.60,234.00,false,0,
Carrigallen GAA,,53.98649800,-7.65666300,Connacht,Ireland,Leitrim,Leitrim,"https://maps.google.com/?daddr=53.986498,-7.656663",https://twitter.com/carrigallengfc,82.00,1051.30,268.00,false,0,
Carrigeen,Asper Park,52.28831500,-7.22378100,Leinster,Ireland,Kilkenny,Kilkenny,"https://maps.google.com/?daddr=52.288315,-7.223781",https://twitter.com/clubcarrigeen,33.00,1240.40,236.00,false,0,
Carrig/Riverstown,,53.05831200,-7.98013100,Leinster,Ireland,Offaly,Offaly,"https://maps.google.com/?daddr=53.058312,-7.980131",https://twitter.com/carrigclg,57.00,974.10,255.00,false,0,
Carrigtwohill,,51.90788600,-8.26413300,Munster,Ireland,Cork,Cork,"https://maps.google.com/?daddr=51.907886,-8.264133",https://twitter.com/carrig2hillgaa,3.00,1363.50,241.00,false,0,
Carryduff GAA,Páirc Aodha Dhuibh,54.53077900,-5.88673200,Ulster,United Kingdom,Down,Down,"https://maps.google.com/?daddr=54.530779,-5.886732",https://twitter.com/CarryduffCLG,120.00,945.09,275.00,false,0,
Cashel,Páirc Chiarán,53.58454400,-7.93696500,Leinster,Ireland,Longford,Longford,"https://maps.google.com/?daddr=53.584544,-7.936965",https://twitter.com/teamcashel,57.00,943.80,264.00,false,0,
Cashel King Cormacs,Leahy Park,52.50961800,-7.87773500,Munster,Ireland,Tipperary,Tipperary,"https://maps.google.com/?daddr=52.509618,-7.877735",,121.00,941.70,245.00,false,0,
Castlebar Mitchels GAA,Páirc Josie Munnelly,53.85295400,-9.28317700,Connacht,Ireland,Mayo,Mayo,"https://maps.google.com/?daddr=53.852954,-9.283177",https://twitter.com/MitchelsGaa,44.00,1291.30,275.00,false,0,
Castlebar Mitchels Hurling,Páirc Josie Munnelly,53.85360000,-9.28307000,Connacht,Ireland,Mayo,Mayo,"https://maps.google.com/?daddr=53.8536,-9.28307",https://twitter.com/mitchelsgaa,44.00,1291.30,275.00,false,0,
Castleblayney Faughs,St Mary's Park,54.11270000,-6.73108600,Ulster,Ireland,Monaghan,Monaghan,"https://maps.google.com/?daddr=54.1127,-6.731086",https://twitter.com/BlayneyFaughs,106.00,949.10,258.00,false,0,
Castleconnor GAA,St. Brendan's Park,54.16608700,-9.07763800,Connacht,Ireland,Sligo,Sligo,"https://maps.google.com/?daddr=54.166087,-9.077638",https://twitter.com/castleconnorgaa,60.00,1270.40,294.00,false,0,
Castledaly,,53.37474400,-7.79673700,Leinster,Ireland,Westmeath,Westmeath,"https://maps.google.com/?daddr=53.374744,-7.796737",https://twitter.com/stmalachysgaa,52.00,947.10,269.00,false,0,
Castledermot,,52.91072800,-6.84468900,Leinster,Ireland,Kildare,Kildare,"https://maps.google.com/?daddr=52.910728,-6.844689",https://twitter.com/castledermotgaa,76.00,859.00,252.00,false,0,
Castlegar Hurling,,53.27667400,-8.97650400,Connacht,Ireland,Galway,Galway,"https://maps.google.com/?daddr=53.276674,-8.976504",https://twitter.com/castlegargaa,24.00,1131.70,277.00,false,0,
Castlegregory,,52.25901600,-10.01499000,Munster,Ireland,Kerry,Kerry,"https://maps.google.com/?daddr=52.259016,-10.01499",https://twitter.com/castlegregorgaa,7.00,1385.10,283.00,false,0,
Castlehaven,Moneyvollahane,51.54075800,-9.21764600,Munster,Ireland,Cork,Cork,"https://maps.google.com/?daddr=51.540758,-9.217646",https://twitter.com/castlehavengaa,27.00,1574.20,262.00,false,0,
Castlehaven,"Black Field, Union Hall",51.55498590,-9.14531350,Munster,Ireland,Cork,Cork,"https://maps.google.com/?daddr=51.5549859,-9.1453135",https://twitter.com/castlehavengaa,17.00,1574.20,262.00,false,0,
Castleisland Desmonds,,52.23776000,-9.46416500,Munster,Ireland,Kerry,Kerry,"https://maps.google.com/?daddr=52.23776,-9.464165",https://twitter.com/desmonds_gaa,35.00,1354.50,277.00,false,0,
Castleknock GAA,Tír na nÓg Pitches,53.37097100,-6.38898800,Leinster,Ireland,Dublin,Dublin,"https://maps.google.com/?daddr=53.370971,-6.388988",https://twitter.com/castleknockgaa,65.00,817.40,238.00,false,0,
Castleknock GAA,Somerton Park,53.36435700,-6.38730100,Leinster,Ireland,Dublin,Dublin,"https://maps.google.com/?daddr=53.364357,-6.387301",https://twitter.com/castleknockgaa,54.00,817.40,238.00,false,0,
Castleknock GAA,St. Catherine's Park,53.36629800,-6.46989600,Leinster,Ireland,Dublin,Dublin,"https://maps.google.com/?daddr=53.366298,-6.469896",https://twitter.com/castleknockgaa,48.00,770.80,245.00,false,0,
Castlelyons,,52.08825100,-8.23156800,Munster,Ireland,Cork,Cork,"https://maps.google.com/?daddr=52.088251,-8.231568",https://twitter.com/castlelyonsgaa,44.00,1242.30,253.00,false,0,
Castlemagner,,52.16570000,-8.82318100,Munster,Ireland,Cork,Cork,"https://maps.google.com/?daddr=52.1657,-8.823181",https://twitter.com/castlemagnergaa,93.00,1025.10,252.00,false,0,
Castlemartyr,,51.90630500,-8.05109300,Munster,Ireland,Cork,Cork,"https://maps.google.com/?daddr=51.906305,-8.051093",https://twitter.com/castlemartyrgaa,17.00,1312.00,245.00,false,0,
Castlemitchell,,53.02226900,-7.03253200,Leinster,Ireland,Kildare,Kildare,"https://maps.google.com/?daddr=53.022269,-7.032532",https://twitter.com/mitchellsgfc,62.00,872.30,252.00,false,0,
Castlepollard GAA,,53.68095000,-7.30986800,Leinster,Ireland,Westmeath,Westmeath,"https://maps.google.com/?daddr=53.68095,-7.309868",,90.00,924.80,265.00,false,0,
Castlerahan GAA,Fay Park,53.86123200,-7.20992900,Ulster,Ireland,Cavan,Cavan,"https://maps.google.com/?daddr=53.861232,-7.209929",https://twitter.com/castlerahan_gaa,101.00,1006.36,281.00,false,0,
Castletown,,53.76734200,-6.69019600,Leinster,Ireland,Meath,Meath,"https://maps.google.com/?daddr=53.767342,-6.690196",https://twitter.com/castletowngfc,78.00,859.50,244.00,false,0,
Castletown,Daingenroe,52.98006200,-7.50365800,Leinster,Ireland,Laois,Laois,"https://maps.google.com/?daddr=52.980062,-7.503658",https://twitter.com/gaacastletown,101.00,877.90,248.00,false,0,
Castletown/Ballyagran,,52.40151700,-8.78527000,Munster,Ireland,Limerick,Limerick,"https://maps.google.com/?daddr=52.401517,-8.78527",https://twitter.com/ctbgaa,101.00,968.40,258.00,false,0,
Castletownbere,,51.64363500,-9.92567900,Munster,Ireland,Cork,Cork,"https://maps.google.com/?daddr=51.643635,-9.925679",https://twitter.com/ctb_gaa,16.00,1791.60,283.00,false,0,
Castletown Finea Coole Whitehall,Castletown,53.75317300,-7.33359400,Leinster,Ireland,Westmeath,Westmeath,"https://maps.google.com/?daddr=53.753173,-7.333594",,78.00,942.90,267.00,false,0,
Castletown Geoghegan,,53.44870300,-7.48289400,Leinster,Ireland,Westmeath,Westmeath,"https://maps.google.com/?daddr=53.448703,-7.482894",,95.00,991.00,263.00,false,0,
Castletown Liam Mellows,Coolgreany Community Field,52.76293910,-6.23294280,Leinster,Ireland,Wexford,Wexford,"https://maps.google.com/?daddr=52.7629391,-6.2329428",https://twitter.com/castletowngaa,61.00,1052.90,238.00,false,0,
Castletown Liam Mellows,Páirc Perry,52.71014400,-6.20440200,Leinster,Ireland,Wexford,Wexford,"https://maps.google.com/?daddr=52.710144,-6.204402",https://twitter.com/castletowngaa,34.00,1015.30,240.00,false,0,
Castletownroche,,52.17242200,-8.47518700,Munster,Ireland,Cork,Cork,"https://maps.google.com/?daddr=52.172422,-8.475187",https://twitter.com/ctr_gaa,68.00,1095.40,247.00,false,0,
Caulry,,53.43186600,-7.79701900,Leinster,Ireland,Westmeath,Westmeath,"https://maps.google.com/?daddr=53.431866,-7.797019",,77.00,969.20,267.00,false,0,
Causeway GAA,,52.41061800,-9.73635200,Munster,Ireland,Kerry,Kerry,"https://maps.google.com/?daddr=52.410618,-9.736352",https://twitter.com/causewayhurling,17.00,1392.20,282.00,false,0,
Cavan GAA,Breffni Park,53.98162300,-7.36061800,Ulster,Ireland,Cavan,Cavan,"https://maps.google.com/?daddr=53.981623,-7.360618",,63.00,1013.70,274.00,false,0,
Cavan Gaels,Terry Coyle Park,53.98803800,-7.36312200,Ulster,Ireland,Cavan,Cavan,"https://maps.google.com/?daddr=53.988038,-7.363122",https://twitter.com/cavangaelsgfc,76.00,1013.28,288.00,false,0,
Celbridge,,53.33126100,-6.52801200,Leinster,Ireland,Kildare,Kildare,"https://maps.google.com/?daddr=53.331261,-6.528012",https://twitter.com/celbridgegaa,54.00,833.80,251.00,false,0,
Charlestown Sarsfields,Fr. O'Hara Park,53.95883000,-8.80540000,Connacht,Ireland,Mayo,Mayo,"https://maps.google.com/?daddr=53.95883,-8.8054",https://twitter.com/charlestowngaa,69.00,1233.30,281.00,false,0,
Charleville,,52.35177200,-8.67835500,Munster,Ireland,Cork,Cork,"https://maps.google.com/?daddr=52.351772,-8.678355",https://twitter.com/charlevillegaa,103.00,1015.80,254.00,false,0,
Churchill,,52.27494000,-9.78406700,Munster,Ireland,Kerry,Kerry,"https://maps.google.com/?daddr=52.27494,-9.784067",https://twitter.com/gaachurchill,4.00,1385.10,283.00,false,0,
Churchtown,,52.27076500,-8.73646000,Munster,Ireland,Cork,Cork,"https://maps.google.com/?daddr=52.270765,-8.73646",,109.00,960.90,251.00,false,0,
Cill Chomáin GAA,"Páirc an Phobail, Cill Chomain",54.23549700,-9.65367400,Connacht,Ireland,Mayo,Mayo,"https://maps.google.com/?daddr=54.235497,-9.653674",https://twitter.com/cillchomaingaa,21.00,1641.10,311.00,false,0,
Cill na Martra,Páirc Uí Chuana,51.89909500,-9.08358200,Munster,Ireland,Cork,Cork,"https://maps.google.com/?daddr=51.899095,-9.083582",https://twitter.com/gaacillnamartra?,172.00,1495.20,253.00,false,0,
Cinn Mhara GAA,Faiche Padraic,53.13627000,-8.95299000,Connacht,Ireland,Galway,Galway,"https://maps.google.com/?daddr=53.13627,-8.95299",https://twitter.com/kinvaragaa,13.00,1165.50,278.00,false,0,
CIT,,51.88576900,-8.54008900,Munster,Ireland,Cork,Cork,"https://maps.google.com/?daddr=51.885769,-8.540089",https://twitter.com/corkitgaa,7.00,1271.00,243.00,false,0,
Civil Service Football,Memorial Park,53.34491100,-6.31186300,Leinster,Ireland,Dublin,Dublin,"https://maps.google.com/?daddr=53.344911,-6.311863",https://twitter.com/civilservicegaa,8.00,833.80,251.00,false,0,
CJ Kickhams Mullinahone,,52.51485400,-7.50174700,Munster,Ireland,Tipperary,Tipperary,"https://maps.google.com/?daddr=52.514854,-7.501747",,78.00,965.50,255.00,false,0,
Clane,,53.28925900,-6.69390700,Leinster,Ireland,Kildare,Kildare,"https://maps.google.com/?daddr=53.289259,-6.693907",https://twitter.com/clanegaa,70.00,801.90,250.00,false,0,
"Clan Na Gael, Dundalk",,54.01100300,-6.41307500,Leinster,Ireland,Louth,Louth,"https://maps.google.com/?daddr=54.011003,-6.413075",https://twitter.com/onceaclan,3.00,884.60,254.00,false,0,
"Clanna Gael GAA, Fontenoy",,53.33765900,-6.21632500,Leinster,Ireland,Dublin,Dublin,"https://maps.google.com/?daddr=53.337659,-6.216325",https://twitter.com/clannagaelfont,6.00,927.50,245.00,false,0,
"Clan na Gael GAA, Lurgan",Davitt Park,54.46235600,-6.34925300,Ulster,United Kingdom,Armagh,Armagh,"https://maps.google.com/?daddr=54.462356,-6.349253",https://twitter.com/clannagael1922,41.00,966.75,278.00,false,0,
"Clann Éireann GAA, Lurgan",Clann Eireann Park,54.47501300,-6.33033300,Ulster,United Kingdom,Armagh,Armagh,"https://maps.google.com/?daddr=54.475013,-6.330333",https://twitter.com/clanneireann1,33.00,966.75,278.00,false,0,
Clann Mhuire GAA,Naul,53.58624100,-6.29257000,Leinster,Ireland,Dublin,Dublin,"https://maps.google.com/?daddr=53.586241,-6.29257",https://twitter.com/clannmhuireclg,76.00,764.10,250.00,false,0,
Clann na Banna GAA,Cottage Park,54.34937100,-6.28202300,Ulster,United Kingdom,Down,Down,"https://maps.google.com/?daddr=54.349371,-6.282023",https://twitter.com/clannnabannaclg,90.00,931.55,282.00,false,0,
Clann na nGael,Ráth Cairn,53.61818700,-6.86765000,Leinster,Ireland,Meath,Meath,"https://maps.google.com/?daddr=53.618187,-6.86765",https://twitter.com/clannnangaelgaa,81.00,876.00,251.00,false,0,
Clann na nGael,,51.65827800,-9.26112300,Munster,Ireland,Cork,Cork,"https://maps.google.com/?daddr=51.658278,-9.261123",https://twitter.com/scorchersgaa,64.00,1752.50,257.00,false,0,
Clann na nGael,"Kells Road, Athboy",53.62691100,-6.91054200,Leinster,Ireland,Meath,Meath,"https://maps.google.com/?daddr=53.626911,-6.910542",https://twitter.com/clannnangaelgaa,71.00,876.00,251.00,false,0,
"Clann na nGael GAA, Donagheady",O'Connell Park,54.82615400,-7.22647200,Ulster,United Kingdom,Tyrone,Tyrone,"https://maps.google.com/?daddr=54.826154,-7.226472",,174.00,1219.24,300.00,false,0,
"Clann na nGael GAA, Johnstown",,53.36866300,-8.02143900,Connacht,Ireland,Roscommon,Roscommon,"https://maps.google.com/?daddr=53.368663,-8.021439",https://twitter.com/clanngaa,54.00,950.00,264.00,false,0,
Clara,,52.64507000,-7.14644600,Leinster,Ireland,Kilkenny,Kilkenny,"https://maps.google.com/?daddr=52.64507,-7.146446",https://twitter.com/claragaa,72.00,886.90,244.00,false,0,
Clara,,53.33956500,-7.63238200,Leinster,Ireland,Offaly,Offaly,"https://maps.google.com/?daddr=53.339565,-7.632382",https://twitter.com/Clara_gaa_club,49.00,936.40,269.00,false,0,
Clarecastle,,52.81604200,-8.97248100,Munster,Ireland,Clare,Clare,"https://maps.google.com/?daddr=52.816042,-8.972481",https://twitter.com/ClarecastleGAA,7.00,1064.30,265.00,false,0,
Clare GAA,Cusack Park (Ennis),52.84665100,-8.97849500,Munster,Ireland,Clare,Clare,"https://maps.google.com/?daddr=52.846651,-8.978495",,2.00,1064.30,265.00,false,0,
Clare Island GAA,"Fawnglass, Clare Island",53.80233000,-9.95497700,Connacht,Ireland,Mayo,Mayo,"https://maps.google.com/?daddr=53.80233,-9.954977", https://twitter.com/clare_island,17.00,1529.90,275.00,false,0,
Claremorris GAA,,53.72238200,-8.99457000,Connacht,Ireland,Mayo,Mayo,"https://maps.google.com/?daddr=53.722382,-8.99457",https://twitter.com/claremorrisgaa,70.00,1234.20,275.00,false,0,
Clarinbridge GAA,,53.23038000,-8.87663800,Connacht,Ireland,Galway,Galway,"https://maps.google.com/?daddr=53.23038,-8.876638",https://twitter.com/ClarinbridgeGaa,13.00,1131.70,277.00,false,0,
Clashmore / Kinsalebeg,,52.00588000,-7.82075300,Munster,Ireland,Waterford,Waterford,"https://maps.google.com/?daddr=52.00588,-7.820753",https://twitter.com/ckgaaclub,39.00,1233.00,248.00,false,0,
Claughaun,,52.65932900,-8.59450700,Munster,Ireland,Limerick,Limerick,"https://maps.google.com/?daddr=52.659329,-8.594507",https://twitter.com/claughaungaa,20.00,1166.50,263.00,false,0,
Clerihan,,52.40905900,-7.74759600,Munster,Ireland,Tipperary,Tipperary,"https://maps.google.com/?daddr=52.409059,-7.747596",,90.00,985.10,247.00,false,0,
CLG an Cheathrú Ruaidh,Páirc an Chathánaigh,53.25718000,-9.60288000,Connacht,Ireland,Galway,Galway,"https://maps.google.com/?daddr=53.25718,-9.60288",https://twitter.com/clgancrua,12.00,1445.00,286.00,false,0,
CLG An Spidéal,Pháirc an Athar Mhic Suibhne,53.24675000,-9.28014900,Connacht,Ireland,Galway,Galway,"https://maps.google.com/?daddr=53.24675,-9.280149",https://twitter.com/clg_anspideal,14.00,1279.70,282.00,false,0,
CLG Cárna-Caiseal,,53.32337700,-9.83014000,Connacht,Ireland,Galway,Galway,"https://maps.google.com/?daddr=53.323377,-9.83014",https://twitter.com/clgcarnacaiseal,14.00,1619.30,286.00,false,0,
CLG Laochra Loch Lao,Spórtlann na hÉireann,54.59134800,-5.96857650,Ulster,United Kingdom,Antrim,Antrim,"https://maps.google.com/?daddr=54.591348,-5.9685765",https://twitter.com/lamhdheargclg,16.00,977.48,278.00,false,0,
CLG Mhaigh Cuilinn,Páirc Mhaigh Cuilinn,53.35954300,-9.17508000,Connacht,Ireland,Galway,Galway,"https://maps.google.com/?daddr=53.359543,-9.17508",https://twitter.com/maighcuilinn,16.00,1308.00,272.00,false,0,
CLG Mhaigh Cuilinn,Páirc Mhaigh Cuilinn,53.35954300,-9.17501000,Connacht,Ireland,Galway,Galway,"https://maps.google.com/?daddr=53.359543,-9.17501",https://twitter.com/maighcuilinn,16.00,1308.00,272.00,false,0,
CLG Micháel Breathnach,,53.24770000,-9.36834000,Connacht,Ireland,Galway,Galway,"https://maps.google.com/?daddr=53.2477,-9.36834",https://twitter.com/clgmb,21.00,1445.00,286.00,false,0,
"CLG Naomh Anna, Leitir Móir",Cumann Peile Naomh Anna,53.27827700,-9.66009800,Connacht,Ireland,Galway,Galway,"https://maps.google.com/?daddr=53.278277,-9.660098",https://twitter.com/naomhanna,2.00,1446.10,260.00,false,0,
CLG Oileáin Árann,Páirc Peil Inis Oírr,53.06416300,-9.52225000,Connacht,Ireland,Galway,Galway,"https://maps.google.com/?daddr=53.064163,¬†-9.52225",https://twitter.com/clgoileainarann,6.00,1499.40,280.00,false,0,
CLG Oileáin Árann,Pairc Einne Inis Mór,53.10588400,-9.65520100,Connacht,Ireland,Galway,Galway,"https://maps.google.com/?daddr=53.105884,-9.655201",https://twitter.com/clgoileainarann,,1225.20,259.00,false,0,
Clogherinkoe,,53.39008800,-6.99670700,Leinster,Ireland,Kildare,Kildare,"https://maps.google.com/?daddr=53.390088,-6.996707",https://twitter.com/clogherinkoegaa,88.00,851.40,255.00,false,0,
Clonad,,52.99382000,-7.29616700,Leinster,Ireland,Laois,Laois,"https://maps.google.com/?daddr=52.99382,-7.296167",https://twitter.com/clonadgaa,108.00,860.60,253.00,false,0,
Clonakenny,,52.88650200,-7.81808500,Munster,Ireland,Tipperary,Tipperary,"https://maps.google.com/?daddr=52.886502,-7.818085",,130.00,954.30,253.00,false,0,
Clonakilty,,51.62119300,-8.92550900,Munster,Ireland,Cork,Cork,"https://maps.google.com/?daddr=51.621193,-8.925509",https://twitter.com/clongaa,24.00,1507.60,257.00,false,0,
Clonard GAA,St. Finian's Park,53.45031400,-7.02209200,Leinster,Ireland,Meath,Meath,"https://maps.google.com/?daddr=53.450314,-7.022092",https://twitter.com/clonardgaameath,73.00,884.40,254.00,false,0,
Clonard GAA,,52.33836900,-6.47837500,Leinster,Ireland,Wexford,Wexford,"https://maps.google.com/?daddr=52.338369,-6.478375",https://twitter.com/clonard_gaa,46.00,1132.30,259.00,false,0,
Clonaslee/St Manmans,,53.15135100,-7.52620900,Leinster,Ireland,Laois,Laois,"https://maps.google.com/?daddr=53.151351,-7.526209",,108.00,980.50,250.00,false,0,
Clonberne/Kilkerrin,Fr. Stephen's Park,53.55753800,-8.64998000,Connacht,Ireland,Galway,Galway,"https://maps.google.com/?daddr=53.557538,-8.64998",https://twitter.com/KilClonGAA,75.00,1059.70,260.00,false,0,
Clonboney,,52.79777100,-9.41348800,Munster,Ireland,Clare,Clare,"https://maps.google.com/?daddr=52.797771,-9.413488",https://twitter.com/clooneyquingaa,67.00,1464.70,265.00,false,0,
Clonbullogue,,53.26284300,-7.08327900,Leinster,Ireland,Offaly,Offaly,"https://maps.google.com/?daddr=53.262843,-7.083279",,69.00,880.60,256.00,false,0,
Clondegad,,52.72021200,-9.06338000,Munster,Ireland,Clare,Clare,"https://maps.google.com/?daddr=52.720212,-9.06338",https://twitter.com/clondegadf,23.00,1142.30,267.00,false,0,
Clondrohid,,51.92972300,-9.01946700,Munster,Ireland,Cork,Cork,"https://maps.google.com/?daddr=51.929723,-9.019467",https://twitter.com/clondrohidgaa,147.00,1495.20,253.00,false,0,
Clonduff GAA,Clonduff Park,54.20022800,-6.13535200,Ulster,United Kingdom,Down,Down,"https://maps.google.com/?daddr=54.200228,-6.135352",https://twitter.com/clonduffgac,104.00,980.99,287.00,false,0,
Clonea Power,,52.28067200,-7.44549000,Munster,Ireland,Waterford,Waterford,"https://maps.google.com/?daddr=52.280672,-7.44549",https://twitter.com/CloneaGAA,72.00,1333.30,239.00,false,0,
Clonee GAA,,52.62262800,-6.48107200,Leinster,Ireland,Wexford,Wexford,"https://maps.google.com/?daddr=52.622628,-6.481072",,98.00,1065.10,252.00,false,0,
Cloneen,,52.86844500,-7.16704000,Leinster,Ireland,Kilkenny,Kilkenny,"https://maps.google.com/?daddr=52.868445,-7.16704",https://twitter.com/cloneengaa,147.00,934.80,261.00,false,0,
Clones ,St Tiernach's Park,54.18566000,-7.23398000,Ulster,Ireland,Monaghan,Monaghan,"https://maps.google.com/?daddr=54.18566,-7.23398",https://twitter.com/ClonesGAA,59.00,987.70,264.00,false,0,
Clongeen GAA,,52.30488300,-6.76483200,Leinster,Ireland,Wexford,Wexford,"https://maps.google.com/?daddr=52.304883,-6.764832",,67.00,1206.10,246.00,false,0,
Clonguish,Allen Park,53.76046000,-7.83090800,Leinster,Ireland,Longford,Longford,"https://maps.google.com/?daddr=53.76046,-7.830908",https://twitter.com/clonguishgaa,54.00,983.70,280.00,false,0,
Clonkill,,53.57244600,-7.27367200,Leinster,Ireland,Westmeath,Westmeath,"https://maps.google.com/?daddr=53.572446,-7.273672",https://twitter.com/clonkillcc,116.00,953.00,264.00,false,0,
Clonlara,,52.71960200,-8.55760000,Munster,Ireland,Clare,Clare,"https://maps.google.com/?daddr=52.719602,-8.5576",https://twitter.com/clonlaragaaclub,18.00,1166.50,263.00,false,0,
Clonmel Commercials,Clonmel GAA Grounds,52.35328500,-7.71314500,Munster,Ireland,Tipperary,Tipperary,"https://maps.google.com/?daddr=52.353285,-7.713145",https://twitter.com/commercialsgaa,23.00,1039.40,248.00,false,0,
Clonmel Óg,Ned Hall Park,52.36231800,-7.70614200,Munster,Ireland,Tipperary,Tipperary,"https://maps.google.com/?daddr=52.362318,-7.706142",https://twitter.com/clonmel_og,29.00,1039.40,248.00,false,0,
Clonmore,,52.85425800,-6.56995600,Leinster,Ireland,Carlow,Carlow,"https://maps.google.com/?daddr=52.854258,-6.569956",https://twitter.com/clonmoregfc,173.00,999.50,259.00,false,0,
Clonmore Harps,,53.37442800,-7.14065500,Leinster,Ireland,Offaly,Offaly,"https://maps.google.com/?daddr=53.374428,-7.140655",https://twitter.com/harpsclonmore,75.00,878.20,259.00,false,0,
Clonoulty-Rossmore,,52.61214000,-7.95605700,Munster,Ireland,Tipperary,Tipperary,"https://maps.google.com/?daddr=52.61214,-7.956057",,93.00,913.30,252.00,false,0,
Clontarf GAA,"Pitch 34/35, St. Anne's Park",53.36954600,-6.18434100,Leinster,Ireland,Dublin,Dublin,"https://maps.google.com/?daddr=53.369546,-6.184341",https://twitter.com/clontarfgaaclub,15.00,931.70,241.00,false,0,
Clontibret O'Neills,Páirc Uí Néill,54.21854000,-6.84484200,Ulster,Ireland,Monaghan,Monaghan,"https://maps.google.com/?daddr=54.21854,-6.844842",https://twitter.com/clontibretclg,61.00,886.80,258.00,false,0,
Cloonacool GAA,Cloonacool GAA Community Field,54.11535200,-8.75783800,Connacht,Ireland,Sligo,Sligo,"https://maps.google.com/?daddr=54.115352,-8.757838",https://twitter.com/cloonacoolgaa,76.00,1341.90,293.00,false,0,
Cloone GAA,,53.93486200,-7.78723400,Connacht,Ireland,Leitrim,Leitrim,"https://maps.google.com/?daddr=53.934862,-7.787234",https://twitter.com/cloonegaa,52.00,1084.30,272.00,false,0,
Clooney Gaels,Fr. McGuigan Park,54.82385000,-6.38777700,Ulster,United Kingdom,Antrim,Antrim,"https://maps.google.com/?daddr=54.82385,-6.387777",https://twitter.com/ahoghillgaa,115.00,926.94,290.00,false,0,
Clooney Quin,,52.83656600,-8.85606300,Munster,Ireland,Clare,Clare,"https://maps.google.com/?daddr=52.836566,-8.856063",https://twitter.com/clonbony_gaa,37.00,1216.80,265.00,false,0,
Cloughaneely GAA,Páirc Naomh Fionnán,55.14063900,-8.09820300,Ulster,Ireland,Donegal,Donegal,"https://maps.google.com/?daddr=55.140639,-8.098203",https://twitter.com/clgcloughaneely,44.00,1622.85,308.00,false,0,
Clough Ballacolla,The Hawthorn,52.88174900,-7.45169400,Leinster,Ireland,Laois,Laois,"https://maps.google.com/?daddr=52.881749,-7.451694",https://twitter.com/clough_bcolla,93.00,845.60,244.00,false,0,
Cloughbawn GAA,,52.46756800,-6.73189000,Leinster,Ireland,Wexford,Wexford,"https://maps.google.com/?daddr=52.467568,-6.73189",https://twitter.com/cloughbawn,88.00,1143.30,239.00,false,0,
Cloughduv,,51.84916000,-8.78382100,Munster,Ireland,Cork,Cork,"https://maps.google.com/?daddr=51.84916,-8.783821",https://twitter.com/cloughduvhurlin,57.00,1282.30,239.00,false,0,
Clounmacon,,52.48191200,-9.42311700,Munster,Ireland,Kerry,Kerry,"https://maps.google.com/?daddr=52.481912,-9.423117",,33.00,1309.70,275.00,false,0,
Cloyne,,51.86534400,-8.12108200,Munster,Ireland,Cork,Cork,"https://maps.google.com/?daddr=51.865344,-8.121082",https://twitter.com/cloynegaa,22.00,1248.60,259.00,false,0,
Club Iománaíochta Bearna / Na Forbacha,,53.25906000,-9.20853100,Connacht,Ireland,Galway,Galway,"https://maps.google.com/?daddr=53.25906,-9.208531",https://twitter.com/barnafurboutd,28.00,1279.70,282.00,false,0,
Clyda Rovers,,52.08221700,-8.62940400,Munster,Ireland,Cork,Cork,"https://maps.google.com/?daddr=52.082217,-8.629404",https://twitter.com/clydaroversgaa,104.00,1279.50,259.00,false,0,
Cobh,,51.85638500,-8.28533800,Munster,Ireland,Cork,Cork,"https://maps.google.com/?daddr=51.856385,-8.285338",https://twitter.com/cobhgaa15,82.00,1248.30,249.00,false,0,
Coill Dubh,,53.29446800,-6.82142300,Leinster,Ireland,Kildare,Kildare,"https://maps.google.com/?daddr=53.294468,-6.821423",https://twitter.com/coilldubhgaa,84.00,866.90,251.00,false,0,
Colligan / Emmets,,52.15780200,-7.68594000,Munster,Ireland,Waterford,Waterford,"https://maps.google.com/?daddr=52.157802,-7.68594",https://twitter.com/colligangaa,149.00,1537.60,257.00,false,0,
Colmcille,Fr. McGee Park,53.82473500,-7.61464100,Leinster,Ireland,Longford,Longford,"https://maps.google.com/?daddr=53.824735,-7.614641",https://twitter.com/colmcillegaa,138.00,1050.20,277.00,false,0,
Commercials Hurling Club,,53.28500100,-6.45947100,Leinster,Ireland,Dublin,Dublin,"https://maps.google.com/?daddr=53.285001,-6.459471",https://twitter.com/commercialshur1,108.00,944.30,257.00,false,0,
Conahy Shamrocks,,52.72043400,-7.29180000,Leinster,Ireland,Kilkenny,Kilkenny,"https://maps.google.com/?daddr=52.720434,-7.2918",https://twitter.com/conahyshamrocks,64.00,909.30,247.00,false,0,
Confey,,53.37455100,-6.48188800,Leinster,Ireland,Kildare,Kildare,"https://maps.google.com/?daddr=53.374551,-6.481888",https://twitter.com/confeygaa,56.00,770.80,245.00,false,0,
"Con Magee's GAA, Glenravel",Fr. Maginn Park,54.98459600,-6.18659300,Ulster,United Kingdom,Antrim,Antrim,"https://maps.google.com/?daddr=54.984596,-6.186593",https://twitter.com/con_magee,178.00,1189.86,299.00,false,0,
Connacht GAA,Connacht GAA Air Dome,53.77426040,-8.85377950,Connacht,Ireland,Mayo,Mayo,"https://maps.google.com/?daddr=53.7742604,-8.8537795",https://twitter.com/ConnachtGAA,99.00,1230.10,280.00,false,0,
Connacht GAA,Connacht GAA Centre of Excellence,53.77552590,-8.85144790,Connacht,Ireland,Mayo,Mayo,"https://maps.google.com/?daddr=53.7755259,-8.8514479",https://twitter.com/ConnachtGAA,99.00,1230.10,280.00,false,0,
Coolaney/Mullinabreena GAA,Nace O'Dowd Park,54.09545000,-8.66044000,Connacht,Ireland,Sligo,Sligo,"https://maps.google.com/?daddr=54.09545,-8.66044",https://twitter.com/CoolMbreenaGAA,59.00,1341.90,293.00,false,0,
Coolboy GAA,Coolboy Community Field,52.76524000,-6.42702900,Leinster,Ireland,Wicklow,Wicklow,"https://maps.google.com/?daddr=52.76524,-6.427029",,131.00,1101.10,251.00,false,0,
Coolderry,,53.01403900,-7.84449100,Leinster,Ireland,Offaly,Offaly,"https://maps.google.com/?daddr=53.014039,-7.844491",https://twitter.com/coolderrygaa,94.00,1022.60,270.00,false,0,
Coolera/Strandhill,Ransboro Park,54.24474000,-8.54230000,Connacht,Ireland,Sligo,Sligo,"https://maps.google.com/?daddr=54.24474,-8.5423",https://twitter.com/cul_strand_gaa,37.00,1281.50,291.00,false,0,
Cooley Kickhams,Fr. Mc Evoy Park,54.01004700,-6.16927300,Leinster,Ireland,Louth,Louth,"https://maps.google.com/?daddr=54.010047,-6.169273",https://twitter.com/cooleykickhams,38.00,961.60,251.00,false,0,
Coolkenno GAA,,52.77805300,-6.62280000,Leinster,Ireland,Wicklow,Wicklow,"https://maps.google.com/?daddr=52.778053,-6.6228",,112.00,952.20,256.00,false,0,
Coolmeen,,52.66674400,-9.22212800,Munster,Ireland,Clare,Clare,"https://maps.google.com/?daddr=52.666744,-9.222128",https://twitter.com/coolmeengaa,36.00,1296.40,272.00,false,0,
Cooraclare,,52.69688500,-9.42651400,Munster,Ireland,Clare,Clare,"https://maps.google.com/?daddr=52.696885,-9.426514",https://twitter.com/cooraclaregaa,39.00,1352.70,279.00,false,0,
Cootehill Celtic,Hugh O'Reilly Park,54.07247900,-7.07964300,Ulster,Ireland,Cavan,Cavan,"https://maps.google.com/?daddr=54.072479,-7.079643",https://twitter.com/cootehill1celt,97.00,962.54,282.00,false,0,
Coralstown/Kinnegad,,53.46110000,-7.10372600,Leinster,Ireland,Westmeath,Westmeath,"https://maps.google.com/?daddr=53.4611,-7.103726",https://twitter.com/crookedwoodgaa,73.00,884.40,254.00,false,0,
Cordal,,52.22178700,-9.38227300,Munster,Ireland,Kerry,Kerry,"https://maps.google.com/?daddr=52.221787,-9.382273",https://twitter.com/cordalgaa,70.00,1303.30,276.00,false,0,
Corduff Gaels,Páirc Eoghain Uí Mhearáin,54.01019700,-6.82086000,Ulster,Ireland,Monaghan,Monaghan,"https://maps.google.com/?daddr=54.010197,-6.82086",https://twitter.com/corduffgaa,176.00,933.80,260.00,false,0,
Cork GAA,Páirc Uí Chaoimh,51.89980800,-8.43533700,Munster,Ireland,Cork,Cork,"https://maps.google.com/?daddr=51.899808,-8.435337",,3.00,1322.50,239.00,false,0,
Cork GAA,Páirc Uí Rinn,51.89139100,-8.43930800,Munster,Ireland,Cork,Cork,"https://maps.google.com/?daddr=51.891391,-8.439308",,28.00,1322.50,239.00,false,0,
Corlough GAA,Páirc Chorlaí,54.11805600,-7.74779900,Ulster,Ireland,Cavan,Cavan,"https://maps.google.com/?daddr=54.118056,-7.747799",https://twitter.com/corloughgfc,84.00,1153.66,295.00,false,0,
Cornafean GAA,Páirc Naomh Fionnán,53.95040000,-7.49461000,Ulster,Ireland,Cavan,Cavan,"https://maps.google.com/?daddr=53.9504,-7.49461",https://twitter.com/cornafeangaa,67.00,997.43,293.00,false,0,
Corofin,,52.94496400,-9.06676800,Munster,Ireland,Clare,Clare,"https://maps.google.com/?daddr=52.944964,-9.066768",https://twitter.com/corofingaaclub,21.00,1162.00,260.00,false,0,
Corofin GAA,,53.43737000,-8.86050000,Connacht,Ireland,Galway,Galway,"https://maps.google.com/?daddr=53.43737,-8.8605",https://twitter.com/CorofinGAA,33.00,1203.90,277.00,false,0,
Cortoon Shamrocks,Brownsgrove GAA Pitch,53.56547000,-8.79935100,Connacht,Ireland,Galway,Galway,"https://maps.google.com/?daddr=53.56547,-8.799351",https://twitter.com/cortoonshamrock,77.00,1180.60,263.00,false,0,
Cortown GAA,,53.68419100,-6.85162100,Leinster,Ireland,Meath,Meath,"https://maps.google.com/?daddr=53.684191,-6.851621",https://twitter.com/cortowngfc,61.00,891.40,251.00,false,0,
Courcey Rovers,,51.66370500,-8.59429100,Munster,Ireland,Cork,Cork,"https://maps.google.com/?daddr=51.663705,-8.594291",https://twitter.com/courceysgaa,17.00,1361.00,263.00,false,0,
Courtwood,Kilbracken,53.10383500,-7.08377500,Leinster,Ireland,Laois,Laois,"https://maps.google.com/?daddr=53.103835,-7.083775",https://twitter.com/courtwoodgaa,66.00,815.90,248.00,false,0,
Craanford Fr. O'Regans,,52.67778900,-6.39176200,Leinster,Ireland,Wexford,Wexford,"https://maps.google.com/?daddr=52.677789,-6.391762",https://twitter.com/froreganscford,99.00,1075.00,239.00,false,0,
Craobh Chiaráin GAA,Clonslaugh Pitch,53.40889500,-6.19883900,Leinster,Ireland,Dublin,Dublin,"https://maps.google.com/?daddr=53.408895,-6.198839",https://twitter.com/craobhchiarain,37.00,931.70,241.00,false,0,
Craobh Rua GAA,Craobh Rua Park,54.19181400,-6.39312500,Ulster,United Kingdom,Armagh,Armagh,"https://maps.google.com/?daddr=54.191814,-6.393125",https://twitter.com/craobh_rua,69.00,969.36,285.00,false,0,
Cratloe,,52.69622700,-8.76128700,Munster,Ireland,Clare,Clare,"https://maps.google.com/?daddr=52.696227,-8.761287",https://twitter.com/cratloegaaclub,20.00,1124.40,269.00,false,0,
Craughwell GAA,,53.22990000,-8.73011000,Connacht,Ireland,Galway,Galway,"https://maps.google.com/?daddr=53.2299,-8.73011",https://twitter.com/craughwellgaa,25.00,1142.60,269.00,false,0,
Crecora/Manister,,52.57293000,-8.66484100,Munster,Ireland,Limerick,Limerick,"https://maps.google.com/?daddr=52.57293,-8.664841",https://twitter.com/crecoragaa,40.00,1019.10,257.00,false,0,
Creggs GAA,Creggs GAA Pitch,53.59275600,-8.36638900,Connacht,Ireland,Roscommon,Roscommon,"https://maps.google.com/?daddr=53.592756,-8.366389",https://twitter.com/GaaCreggs,71.00,1070.40,261.00,false,0,
Cremartin Shamrocks,Páirc Na Seamróige,54.16008100,-6.81535000,Ulster,Ireland,Monaghan,Monaghan,"https://maps.google.com/?daddr=54.160081,-6.81535",https://twitter.com/cremartingaa,113.00,953.40,258.00,false,0,
Crettyard,,52.86580100,-7.10565600,Leinster,Ireland,Laois,Laois,"https://maps.google.com/?daddr=52.865801,-7.105656",https://twitter.com/gaacrettyard,190.00,934.80,261.00,false,0,
Crinkle,,53.07688200,-7.89102600,Leinster,Ireland,Offaly,Offaly,"https://maps.google.com/?daddr=53.076882,-7.891026",,66.00,980.70,266.00,false,0,
Croagh/Kilfinny,Páirc an Chrocaigh,52.53263800,-8.86040400,Munster,Ireland,Limerick,Limerick,"https://maps.google.com/?daddr=52.532638,-8.860404",https://twitter.com/croaghkilfnygaa,28.00,1030.80,252.00,false,0,
Croí Ró Naofa,,53.27675300,-6.38429600,Leinster,Ireland,Dublin,Dublin,"https://maps.google.com/?daddr=53.276753,-6.384296",https://twitter.com/croironaofagaa,104.00,1097.40,250.00,false,0,
Cromane,,52.10313800,-9.89923700,Munster,Ireland,Kerry,Kerry,"https://maps.google.com/?daddr=52.103138,-9.899237",https://twitter.com/realtnamaraclg,19.00,1395.70,279.00,false,0,
Crookedwood,,53.60210600,-7.28325600,Leinster,Ireland,Westmeath,Westmeath,"https://maps.google.com/?daddr=53.602106,-7.283256",,107.00,953.00,264.00,false,0,
Croom,Páirc Na nGael Cromadh,52.51338500,-8.72937300,Munster,Ireland,Limerick,Limerick,"https://maps.google.com/?daddr=52.513385,-8.729373",https://twitter.com/croomgaa,28.00,1019.10,257.00,false,0,
Crossabeg-Ballymurn,,52.42231100,-6.46441300,Leinster,Ireland,Wexford,Wexford,"https://maps.google.com/?daddr=52.422311,-6.464413",https://twitter.com/Cbeg_Bmurn_GAA,69.00,1110.60,248.00,false,0,
Crosserlough GAA,Dr. Plunkett Park,53.86197500,-7.31633100,Ulster,Ireland,Cavan,Cavan,"https://maps.google.com/?daddr=53.861975,-7.316331",https://twitter.com/CCrosserlough,107.00,984.80,284.00,false,0,
Crosshaven,,51.80741600,-8.28115300,Munster,Ireland,Cork,Cork,"https://maps.google.com/?daddr=51.807416,-8.281153",https://twitter.com/gaacrosshaven,58.00,1242.10,246.00,false,0,
"Crossmaglen Rangers, GAA",St. Oliver Plunket Park,54.07490600,-6.60904300,Ulster,United Kingdom,Armagh,Armagh,"https://maps.google.com/?daddr=54.074906,-6.609043",https://twitter.com/crossrangers,136.00,974.57,279.00,false,0,
Crossmolina Deel Rovers,St. Tiernan's Park,54.10482940,-9.30720934,Connacht,Ireland,Mayo,Mayo,"https://maps.google.com/?daddr=54.1048294,-9.307209335",https://twitter.com/deelroversgaa,23.00,1225.10,286.00,false,0,
Crotta O'Neills,,52.36276000,-9.63411000,Munster,Ireland,Kerry,Kerry,"https://maps.google.com/?daddr=52.36276,-9.63411",https://twitter.com/crottagaa,18.00,1410.30,281.00,false,0,
Crumlin GAA,Pearse Park,53.32321900,-6.31570100,Leinster,Ireland,Dublin,Dublin,"https://maps.google.com/?daddr=53.323219,-6.315701",https://twitter.com/crumlingaa,46.00,927.50,245.00,false,0,
Crusheen,,52.93602500,-8.89859500,Munster,Ireland,Clare,Clare,"https://maps.google.com/?daddr=52.936025,-8.898595",https://twitter.com/crusheengaa,36.00,1162.00,260.00,false,0,
Cuala GAA,Meadowvale,53.27314100,-6.15803000,Leinster,Ireland,Dublin,Dublin,"https://maps.google.com/?daddr=53.273141,-6.15803",https://twitter.com/cualaclg,37.00,1097.40,250.00,false,0,
Cuala GAA,Hyde Park,53.28011800,-6.11251100,Leinster,Ireland,Dublin,Dublin,"https://maps.google.com/?daddr=53.280118,-6.112511",https://twitter.com/cualaclg,21.00,1097.40,250.00,false,0,
Cuala GAA,Thomastown Park (Shared),53.27147700,-6.13535800,Leinster,Ireland,Dublin,Dublin,"https://maps.google.com/?daddr=53.271477,-6.135358",https://twitter.com/cualaclg,54.00,1097.40,250.00,false,0,
Cuala GAA,Shankhill,53.22292900,-6.12112700,Leinster,Ireland,Dublin,Dublin,"https://maps.google.com/?daddr=53.222929,-6.121127",https://twitter.com/cualaclg,28.00,1097.40,250.00,false,0,
"Cuchulainn Gaels, Omeath",,54.08284600,-6.25627600,Leinster,Ireland,Louth,Louth,"https://maps.google.com/?daddr=54.082846,-6.256276",,22.00,1010.40,259.00,false,0,
Cuchulainn's GAA,Edwin Carolan Community Park,53.80869300,-6.93889700,Ulster,Ireland,Cavan,Cavan,"https://maps.google.com/?daddr=53.808693,-6.938897",https://twitter.com/clgcuchulainn,100.00,956.62,285.00,false,0,
"Cúchulainn's GAA, Armagh",Pearse Óg Park,54.34945200,-6.65998000,Ulster,United Kingdom,Armagh,Armagh,"https://maps.google.com/?daddr=54.349452,-6.65998",https://twitter.com/cuchulainnsarma,42.00,871.79,277.00,false,0,
"Cúchulainn's GAA, Mullaghbane",Cúchulainn Park,54.10977200,-6.48769700,Ulster,United Kingdom,Armagh,Armagh,"https://maps.google.com/?daddr=54.109772,-6.487697",https://twitter.com/mullaghbawngaa,104.00,918.32,281.00,false,0,
"Cuchullainn's GAA, Dunloy",Pearse Park,55.00771700,-6.41204000,Ulster,United Kingdom,Antrim,Antrim,"https://maps.google.com/?daddr=55.007717,-6.41204",https://twitter.com/dunloygac,130.00,1069.63,295.00,false,0,
Cullen,,52.11446900,-9.12535200,Munster,Ireland,Cork,Cork,"https://maps.google.com/?daddr=52.114469,-9.125352",https://twitter.com/cullengaa,154.00,1199.50,261.00,false,0,
Culloville Blues GAC,Gaelic Park,54.05877700,-6.63988500,Ulster,United Kingdom,Armagh,Armagh,"https://maps.google.com/?daddr=54.058777,-6.639885",https://twitter.com/culloville_gaa,99.00,926.64,277.00,false,0,
Cumann Peile na bPiarsaigh,,53.38593200,-9.61017400,Connacht,Ireland,Galway,Galway,"https://maps.google.com/?daddr=53.385932,-9.610174",https://twitter.com/na_piarsaigh,14.00,1745.30,283.00,false,0,
Curraha,,53.55410300,-6.45457800,Leinster,Ireland,Meath,Meath,"https://maps.google.com/?daddr=53.554103,-6.454578",https://twitter.com/currahagfc,93.00,819.60,243.00,false,0,
Currin Sons of St Patrick ,Páirc Churraichín,54.13075300,-7.25743000,Ulster,Ireland,Monaghan,Monaghan,"https://maps.google.com/?daddr=54.130753,-7.25743",https://twitter.com/curringaa,53.00,987.70,264.00,false,0,
Currow,,52.18001600,-9.50772700,Munster,Ireland,Kerry,Kerry,"https://maps.google.com/?daddr=52.180016,-9.507727",https://twitter.com/currowgaa,45.00,1303.30,276.00,false,0,
Curry GAA,,54.00540000,-8.78480000,Connacht,Ireland,Sligo,Sligo,"https://maps.google.com/?daddr=54.0054,-8.7848",https://twitter.com/currygaaclub,61.00,1246.90,280.00,false,0,
Daingean,,53.30202400,-7.29189400,Leinster,Ireland,Offaly,Offaly,"https://maps.google.com/?daddr=53.302024,-7.291894",https://twitter.com/daingeangaa,83.00,907.10,255.00,false,0,
Danesfort,,52.58360300,-7.24062600,Leinster,Ireland,Kilkenny,Kilkenny,"https://maps.google.com/?daddr=52.583603,-7.240626",https://twitter.com/danesfortclg,76.00,886.90,244.00,false,0,
Davidstown-Courtnacuddy GAA,,52.46203000,-6.66240200,Leinster,Ireland,Wexford,Wexford,"https://maps.google.com/?daddr=52.46203,-6.662402",https://twitter.com/dcgaaclub,64.00,1143.30,239.00,false,0,
Davitts GAA,Ballindine,53.67240000,-8.95848000,Connacht,Ireland,Mayo,Mayo,"https://maps.google.com/?daddr=53.6724,-8.95848",https://twitter.com/Davitts_GAA,59.00,1235.60,275.00,false,0,
"Davitt's GAA, Ballyhegan",Ballyhegan Park,54.40725900,-6.57401800,Ulster,United Kingdom,Armagh,Armagh,"https://maps.google.com/?daddr=54.407259,-6.574018",https://twitter.com/ballyhegangac,31.00,936.27,279.00,false,0,
Deel Rovers,,52.34111000,-8.85224000,Munster,Ireland,Cork,Cork,"https://maps.google.com/?daddr=52.34111,-8.85224",,113.00,956.80,254.00,false,0,
Delanys,,51.92815000,-8.47143500,Munster,Ireland,Cork,Cork,"https://maps.google.com/?daddr=51.92815,-8.471435",https://twitter.com/delanysgaa,89.00,1322.50,239.00,false,0,
De La Salle,Cleaboy Road,52.26566800,-7.14900200,Munster,Ireland,Waterford,Waterford,"https://maps.google.com/?daddr=52.265668,-7.149002",https://twitter.com/DeLaSalleGAA1,67.00,1240.40,236.00,false,0,
Delvin,,53.60312100,-7.10571500,Leinster,Ireland,Westmeath,Westmeath,"https://maps.google.com/?daddr=53.603121,-7.105715",https://twitter.com/delvingaa,87.00,922.40,262.00,false,0,
Denn GAA,St. Matthew's Park,53.92023500,-7.26460700,Ulster,Ireland,Cavan,Cavan,"https://maps.google.com/?daddr=53.920235,-7.264607",https://twitter.com/DennGAA,114.00,1013.28,288.00,false,0,
Derry GAA,Páirc na gCeilteach,54.99315300,-7.33579100,Ulster,United Kingdom,Derry,Derry,"https://maps.google.com/?daddr=54.993153,-7.335791",,31.00,1017.10,275.00,false,0,
Derry GAA Centre of Excellence,"Owenbeg, Dungiven",54.92417810,-6.95308810,Ulster,United Kingdom,Derry,Derry,"https://maps.google.com/?daddr=54.9241781,-6.9530881",https://twitter.com/doiregaa,74.00,1126.89,291.00,false,0,
Derrygonnelly Harps,Canon Tom Maguire Park,54.42193800,-7.82769600,Ulster,United Kingdom,Fermanagh,Fermanagh,"https://maps.google.com/?daddr=54.421938,-7.827696",https://twitter.com/DgonnellyHarps,64.00,1130.80,287.00,false,0,
Derrynane ,,51.76502300,-10.10411900,Munster,Ireland,Kerry,Kerry,"https://maps.google.com/?daddr=51.765023,-10.104119",https://twitter.com/doirefhionanclg,10.00,1788.40,261.00,false,0,
Derrytresk Fir an Chnoic GAA,Derrytresk GAA Grounds,54.51802600,-6.64025000,Ulster,United Kingdom,Tyrone,Tyrone,"https://maps.google.com/?daddr=54.518026,-6.64025",https://twitter.com/derrytreskgac,15.00,886.13,279.00,false,0,
Diarmuid O'Máthúna's,Coppeen,51.77289500,-8.97373400,Munster,Ireland,Cork,Cork,"https://maps.google.com/?daddr=51.772895,-8.973734",https://twitter.com/domathunas,101.00,1453.00,249.00,false,0,
Dicksboro,Dicksboro,52.65699100,-7.27307200,Leinster,Ireland,Kilkenny,Kilkenny,"https://maps.google.com/?daddr=52.656991,-7.273072",https://twitter.com/DicksboroGAA,58.00,909.30,247.00,false,0,
Dingle,,52.13734400,-10.26751700,Munster,Ireland,Kerry,Kerry,"https://maps.google.com/?daddr=52.137344,-10.267517",https://twitter.com/DingleGAA,11.00,1813.90,285.00,false,0,
Dohenys,,51.71460700,-9.11028300,Munster,Ireland,Cork,Cork,"https://maps.google.com/?daddr=51.714607,-9.110283",https://twitter.com/dohenygaa,65.00,1662.20,263.00,false,0,
Doire Cholmcille GAA,Páirc Cholm Cille,55.00893000,-7.33793200,Ulster,United Kingdom,Derry,Derry,"https://maps.google.com/?daddr=55.00893,-7.337932",https://twitter.com/dcolmcillegaa,42.00,1017.99,293.00,false,0,
Donaghmore/Ashbourne,,53.50943000,-6.41049400,Leinster,Ireland,Meath,Meath,"https://maps.google.com/?daddr=53.50943,-6.410494",https://twitter.com/donashgaa,65.00,799.00,241.00,false,0,
Donaghmoyne Fontenoys,Páirc Fontenoy,54.01472000,-6.69943000,Ulster,Ireland,Monaghan,Monaghan,"https://maps.google.com/?daddr=54.01472,-6.69943",https://twitter.com/DonaghmoyneGaa,65.00,930.50,255.00,false,0,
Donard Glen GAA,,53.02159000,-6.61933400,Leinster,Ireland,Wicklow,Wicklow,"https://maps.google.com/?daddr=53.02159,-6.619334",https://twitter.com/donardglengaa,170.00,1129.30,281.00,false,0,
Donegal GAA,O'Donnell Park,54.94551200,-7.75456100,Ulster,Ireland,Donegal,Donegal,"https://maps.google.com/?daddr=54.945512,-7.754561",,3.00,1051.30,271.00,false,0,
Donegal GAA,Fr Tierney Park,54.49796900,-8.19344800,Ulster,Ireland,Donegal,Donegal,"https://maps.google.com/?daddr=54.497969,-8.193448",,21.00,1394.60,285.00,false,0,
Donegal GAA,MacCumhail Park,54.80152500,-7.78204700,Ulster,Ireland,Donegal,Donegal,"https://maps.google.com/?daddr=54.801525,-7.782047",,18.00,1083.40,275.00,false,0,
Doneraile,,52.21080800,-8.58694400,Munster,Ireland,Cork,Cork,"https://maps.google.com/?daddr=52.210808,-8.586944",https://twitter.com/donerailegaa,73.00,1093.60,249.00,false,0,
Donoughmore,,51.98983600,-8.72862100,Munster,Ireland,Cork,Cork,"https://maps.google.com/?daddr=51.989836,-8.728621",https://twitter.com/DonoughmoreGaa,168.00,1356.00,252.00,false,0,
Doohamlet O'Neills,Páirc Uí Néill,54.13041400,-6.81889000,Ulster,Ireland,Monaghan,Monaghan,"https://maps.google.com/?daddr=54.130414,-6.81889",https://twitter.com/DoohamletGFC,93.00,953.40,258.00,false,0,
Doon,,53.33188300,-7.83070700,Leinster,Ireland,Offaly,Offaly,"https://maps.google.com/?daddr=53.331883,-7.830707",https://twitter.com/doongaa_offaly,54.00,938.40,259.00,false,0,
Doon,,52.60103800,-8.24635500,Munster,Ireland,Limerick,Limerick,"https://maps.google.com/?daddr=52.601038,-8.246355",https://twitter.com/doongaaclub,88.00,1199.10,266.00,false,0,
Doonbeg,Páirc Uí Seancháin,52.72570800,-9.54630600,Munster,Ireland,Clare,Clare,"https://maps.google.com/?daddr=52.725708,-9.546306",https://twitter.com/doonbegfootball,15.00,1434.40,280.00,false,0,
Douglas,,51.87447100,-8.44289800,Munster,Ireland,Cork,Cork,"https://maps.google.com/?daddr=51.874471,-8.442898",https://twitter.com/douglasgaaclub,7.00,1336.60,234.00,false,0,
Down GAA,McKenna Park,54.47782700,-5.51003500,Ulster,United Kingdom,Down,Down,"https://maps.google.com/?daddr=54.477827,-5.510035",,17.00,947.50,248.00,false,0,
Down GAA,Páirc Esler,54.16306800,-6.33712400,Ulster,United Kingdom,Down,Down,"https://maps.google.com/?daddr=54.163068,-6.337124",,2.00,984.60,264.00,false,0,
Downings GAA,Páirc na nDúnaibh,55.19330200,-7.83166800,Ulster,Ireland,Donegal,Donegal,"https://maps.google.com/?daddr=55.193302,-7.831668",https://twitter.com/clgnadunaibh,3.00,1350.40,306.00,false,0,
Dr. Crokes,,52.06723400,-9.50400200,Munster,Ireland,Kerry,Kerry,"https://maps.google.com/?daddr=52.067234,-9.504002",https://twitter.com/drcrokesgaa,46.00,1436.80,273.00,false,0,
"Dreadnots GAA, Clogherhead",,53.77870200,-6.24702200,Leinster,Ireland,Louth,Louth,"https://maps.google.com/?daddr=53.778702,-6.247022",https://twitter.com/dreadnotsgfc,19.00,842.60,242.00,false,0,
Dripsey,O'Briens Field,51.88950100,-8.63109800,Munster,Ireland,Cork,Cork,"https://maps.google.com/?daddr=51.889501,-8.631098",https://twitter.com/dripseygaa,19.00,1271.00,243.00,false,0,
Dromara GAA,Drinn Park,54.36880600,-5.98530400,Ulster,United Kingdom,Down,Down,"https://maps.google.com/?daddr=54.368806,-5.985304",,164.00,1001.44,283.00,false,0,
Dromard,Páirc na nGael,53.89612600,-7.66042500,Leinster,Ireland,Longford,Longford,"https://maps.google.com/?daddr=53.896126,-7.660425",https://twitter.com/dromardgaa,78.00,1047.90,274.00,false,0,
Dromcollogher/Broadford,,52.34403700,-8.91700800,Munster,Ireland,Limerick,Limerick,"https://maps.google.com/?daddr=52.344037,-8.917008",https://twitter.com/drombroafordgaa,106.00,1027.40,257.00,false,0,
Dromid Pearses,,51.89428300,-10.08816400,Munster,Ireland,Kerry,Kerry,"https://maps.google.com/?daddr=51.894283,-10.088164",https://twitter.com/dromidgaa,22.00,1875.00,284.00,false,0,
Dromina,,52.31030400,-8.80646300,Munster,Ireland,Cork,Cork,"https://maps.google.com/?daddr=52.310304,-8.806463",https://twitter.com/drominagaa,146.00,956.80,254.00,false,0,
Dromin/Athlacca,,52.45619400,-8.64563000,Munster,Ireland,Limerick,Limerick,"https://maps.google.com/?daddr=52.456194,-8.64563",https://twitter.com/drominathlaccag,52.00,1002.80,257.00,false,0,
Drom/Inch,The Ragg,52.71891700,-7.91427600,Munster,Ireland,Tipperary,Tipperary,"https://maps.google.com/?daddr=52.718917,-7.914276",,94.00,914.40,244.00,false,0,
Dromtariffe,,52.09789800,-8.97287300,Munster,Ireland,Cork,Cork,"https://maps.google.com/?daddr=52.097898,-8.972873",https://twitter.com/dromtarriffegaa,93.00,1107.40,254.00,false,0,
Drumalee GAA,St. Phelim's Park,53.99798800,-7.35284400,Ulster,Ireland,Cavan,Cavan,"https://maps.google.com/?daddr=53.997988,-7.352844",https://twitter.com/drumaleegfc,95.00,955.12,290.00,false,0,
Drumbaragh Emmett's,,53.72757300,-6.93818600,Leinster,Ireland,Meath,Meath,"https://maps.google.com/?daddr=53.727573,-6.938186",,105.00,931.40,255.00,false,0,
Drumcliffe/Rosses Point,Oxfield,54.33990000,-8.51937000,Connacht,Ireland,Sligo,Sligo,"https://maps.google.com/?daddr=54.3399,-8.51937",https://twitter.com/drumclifferpgaa,12.00,1493.50,296.00,false,0,
